{
  "R. J\u00daLIO CONCEI\u00c7\u00c3O, 92 - BOM RETIRO": {
    "endereco": "92, Rua J\u00falio Concei\u00e7\u00e3o, Bairro da Luz, Bom Retiro, S\u00e3o Paulo, Regi\u00e3o Imediata de S\u00e3o Paulo, Regi\u00e3o Metropolitana de S\u00e3o Paulo, Regi\u00e3o Geogr\u00e1fica Intermedi\u00e1ria de S\u00e3o Paulo, S\u00e3o Paulo, Regi\u00e3o Sudeste, 01126-001, Brasil",
    "latitude": -23.52558261935484,
    "longitude": -46.63748438064516
  },
  "R. SANTO ANT\u00d4NIO, 33 - BELA VISTA": {
    "endereco": "Rua Santo Ant\u00f4nio, Bela Vista, Nova Serrana, Regi\u00e3o Geogr\u00e1fica Imediata de Divin\u00f3polis, Regi\u00e3o Geogr\u00e1fica Intermedi\u00e1ria de Divin\u00f3polis, Minas Gerais, Regi\u00e3o Sudeste, 35520-069, Brasil",
    "latitude": -19.8823824,
    "longitude": -44.980876
  },
  "AV. MANUEL ALVES SOARES, 1100 - PARQUE COLONIAL": {
    "endereco": "Avenida Manuel Alves Soares, Parque Colonial, Cidade Dutra, S\u00e3o Paulo, Regi\u00e3o Imediata de S\u00e3o Paulo, Regi\u00e3o Metropolitana de S\u00e3o Paulo, Regi\u00e3o Geogr\u00e1fica Intermedi\u00e1ria de S\u00e3o Paulo, S\u00e3o Paulo, Regi\u00e3o Sudeste, 04821-000, Brasil",
    "latitude": -23.725326,
    "longitude": -46.6869143
  },
  "AV. FRANCISCO MATARAZZO, 2000 - \u00c1GUA BRANCA": {
    "endereco": "Centro Empresarial Agua Branca New York / Los Angeles, 1500, Avenida Francisco Matarazzo, Barra Funda, S\u00e3o Paulo, Regi\u00e3o Imediata de S\u00e3o Paulo, Regi\u00e3o Metropolitana de S\u00e3o Paulo, Regi\u00e3o Geogr\u00e1fica Intermedi\u00e1ria de S\u00e3o Paulo, S\u00e3o Paulo, Regi\u00e3o Sudeste, 05001-200, Brasil",
    "latitude": -23.52589845,
    "longitude": -46.67659005
  },
  "R. SANTA BERTILA, 30 - PENHA": {},
  "R. BARRA FUNDA, 1071 - BARRA FUNDA": {
    "endereco": "Rua Barra Funda, Barra Funda, S\u00e3o Paulo, Regi\u00e3o Imediata de S\u00e3o Paulo, Regi\u00e3o Metropolitana de S\u00e3o Paulo, Regi\u00e3o Geogr\u00e1fica Intermedi\u00e1ria de S\u00e3o Paulo, S\u00e3o Paulo, Regi\u00e3o Sudeste, 01155-000, Brasil",
    "latitude": -23.5276306,
    "longitude": -46.6611041
  },
  "AL. EDUARDO PRADO, 474 - CAMPOS EL\u00cdSEOS": {},
  "R. LOPES NETO, 206 - ITAIM BIBI": {
    "endereco": "Rua Lopes Neto, Vila Ol\u00edmpia, Itaim Bibi, S\u00e3o Paulo, Regi\u00e3o Imediata de S\u00e3o Paulo, Regi\u00e3o Metropolitana de S\u00e3o Paulo, Regi\u00e3o Geogr\u00e1fica Intermedi\u00e1ria de S\u00e3o Paulo, S\u00e3o Paulo, Regi\u00e3o Sudeste, 04542-001, Brasil",
    "latitude": -23.5884015,
    "longitude": -46.6830601
  },
  "AV. VISC. DO RIO GRANDE, 545 - JARDIM SAO JOSE": {},
  "R. MIGUEL NELSON BECHARA, 316 - JD. DAS GRA\u00c7AS": {},
  "AV. PROF. ALFONSO BOVERO, 522 - LAPA": {},
  "AV. NAGIB FARAH MALUF, 1410 - CONJ. RES. JOS\u00c9 BONIF\u00c1CIO": {},
  "LARGO DA MATRIZ DE NOSSA SENHORA DO \u00d3, 215 - FREGUESIA DO \u00d3": {
    "endereco": "Largo da Matriz de Nossa Senhora do \u00d3, Nossa Senhora do \u00d3, Freguesia do \u00d3, S\u00e3o Paulo, Regi\u00e3o Imediata de S\u00e3o Paulo, Regi\u00e3o Metropolitana de S\u00e3o Paulo, Regi\u00e3o Geogr\u00e1fica Intermedi\u00e1ria de S\u00e3o Paulo, S\u00e3o Paulo, Regi\u00e3o Sudeste, 02925-040, Brasil",
    "latitude": -23.5012482,
    "longitude": -46.6985998
  },
  "R. TREZE DE MAIO, 825 - BELA VISTA": {
    "endereco": "825, Rua Treze de Maio, Bixiga, Bela Vista, S\u00e3o Paulo, Regi\u00e3o Imediata de S\u00e3o Paulo, Regi\u00e3o Metropolitana de S\u00e3o Paulo, Regi\u00e3o Geogr\u00e1fica Intermedi\u00e1ria de S\u00e3o Paulo, S\u00e3o Paulo, Regi\u00e3o Sudeste, 01327-000, Brasil",
    "latitude": -23.560458172222223,
    "longitude": -46.64622744166667
  },
  "R. IQUIRIRIM, 452 - VILA INDIANA": {},
  "R. ARTUR DE AZEVEDO, 2134 - PINHEIROS": {
    "endereco": "2134, Rua Artur de Azevedo, Pinheiros, Bairro de Pinheiros, S\u00e3o Paulo, Regi\u00e3o Imediata de S\u00e3o Paulo, Regi\u00e3o Metropolitana de S\u00e3o Paulo, Regi\u00e3o Geogr\u00e1fica Intermedi\u00e1ria de S\u00e3o Paulo, S\u00e3o Paulo, Regi\u00e3o Sudeste, 05404-005, Brasil",
    "latitude": -23.5679343,
    "longitude": -46.6907617
  },
  "RUA MOURATO COELHO, 1032 - VILA MADALENA": {
    "endereco": "Nossa Casa, 1032, Rua Mourato Coelho, Pinheiros, Bairro de Pinheiros, S\u00e3o Paulo, Regi\u00e3o Imediata de S\u00e3o Paulo, Regi\u00e3o Metropolitana de S\u00e3o Paulo, Regi\u00e3o Geogr\u00e1fica Intermedi\u00e1ria de S\u00e3o Paulo, S\u00e3o Paulo, Regi\u00e3o Sudeste, 05417-001, Brasil",
    "latitude": -23.558806,
    "longitude": -46.6907844
  },
  "R. FRANCISCO SACCO, 32A - JARDIM HERCULANO": {
    "endereco": "Rua Francisco Sacco, Vila Herculano, Jardim \u00c2ngela, Jardim Copacabana, S\u00e3o Paulo, Regi\u00e3o Imediata de S\u00e3o Paulo, Regi\u00e3o Metropolitana de S\u00e3o Paulo, Regi\u00e3o Geogr\u00e1fica Intermedi\u00e1ria de S\u00e3o Paulo, S\u00e3o Paulo, Regi\u00e3o Sudeste, 04920-050, Brasil",
    "latitude": -23.6910689,
    "longitude": -46.7594916
  },
  "R. FORMOSA, 65 - CENTRO HIST\u00d3RICO DE S\u00c3O PAULO": {},
  "R. AREIAS ALVAS, 287 - M\u2019BOI MIRIM": {},
  "R. CARIJ\u00d3S, 248 - \u00c1GUA BRANCA": {
    "endereco": "Rua Carij\u00f3s, Bairro Siciliano, Lapa, S\u00e3o Paulo, Regi\u00e3o Imediata de S\u00e3o Paulo, Regi\u00e3o Metropolitana de S\u00e3o Paulo, Regi\u00e3o Geogr\u00e1fica Intermedi\u00e1ria de S\u00e3o Paulo, S\u00e3o Paulo, Regi\u00e3o Sudeste, 05041-000, Brasil",
    "latitude": -23.5227103,
    "longitude": -46.6898903
  },
  "RUA TREZE DE MAIO, 37 - BELA VISTA": {
    "endereco": "37, Rua Treze de Maio, Bixiga, Bela Vista, S\u00e3o Paulo, Regi\u00e3o Imediata de S\u00e3o Paulo, Regi\u00e3o Metropolitana de S\u00e3o Paulo, Regi\u00e3o Geogr\u00e1fica Intermedi\u00e1ria de S\u00e3o Paulo, S\u00e3o Paulo, Regi\u00e3o Sudeste, 01327-000, Brasil",
    "latitude": -23.553377501765173,
    "longitude": -46.646926483973374
  },
  "R. BELMIRO BRAGA, 119 - PINHEIROS": {
    "endereco": "119, Rua Belmiro Braga, Pinheiros, Bairro de Pinheiros, S\u00e3o Paulo, Regi\u00e3o Imediata de S\u00e3o Paulo, Regi\u00e3o Metropolitana de S\u00e3o Paulo, Regi\u00e3o Geogr\u00e1fica Intermedi\u00e1ria de S\u00e3o Paulo, S\u00e3o Paulo, Regi\u00e3o Sudeste, 05432-020, Brasil",
    "latitude": -23.5597045,
    "longitude": -46.6873019
  },
  "RUA BRIGADEIRO GALV\u00c3O, 723 - BARRA FUNDA": {
    "endereco": "Blue Space, 723, Rua Brigadeiro Galv\u00e3o, Santa Cec\u00edlia, Barra Funda, S\u00e3o Paulo, Regi\u00e3o Imediata de S\u00e3o Paulo, Regi\u00e3o Metropolitana de S\u00e3o Paulo, Regi\u00e3o Geogr\u00e1fica Intermedi\u00e1ria de S\u00e3o Paulo, S\u00e3o Paulo, Regi\u00e3o Sudeste, 01151-000, Brasil",
    "latitude": -23.529871749999998,
    "longitude": -46.658311402870225
  },
  "R. RUI BARBOSA, 269 - BELA VISTA": {
    "endereco": "Al Janiah, 269, Rua Rui Barbosa, Bixiga, Bela Vista, S\u00e3o Paulo, Regi\u00e3o Imediata de S\u00e3o Paulo, Regi\u00e3o Metropolitana de S\u00e3o Paulo, Regi\u00e3o Geogr\u00e1fica Intermedi\u00e1ria de S\u00e3o Paulo, S\u00e3o Paulo, Regi\u00e3o Sudeste, 01326-010, Brasil",
    "latitude": -23.5574738,
    "longitude": -46.6452074
  },
  "R. JO\u00c3O DE BARROS, 23 - BARRA FUNDA": {},
  "R. MARTINICO PRADO, 302 - VILA BUARQUE": {
    "endereco": "Casa Cora\u00e7\u00e3o, 302, Rua Martinico Prado, Vila Buarque, Consola\u00e7\u00e3o, S\u00e3o Paulo, Regi\u00e3o Imediata de S\u00e3o Paulo, Regi\u00e3o Metropolitana de S\u00e3o Paulo, Regi\u00e3o Geogr\u00e1fica Intermedi\u00e1ria de S\u00e3o Paulo, S\u00e3o Paulo, Regi\u00e3o Sudeste, 01224-010, Brasil",
    "latitude": -23.5426033,
    "longitude": -46.6542196
  },
  "AV. MARQU\u00caS DE S\u00c3O VICENTE, 412 - V\u00c1RZEA DA BARRA FUNDA": {},
  "AV. ENG. ARMANDO DE ARRUDA PEREIRA, 3284 - VL. DO ENCONTRO": {
    "endereco": "Avenida Engenheiro Armando de Arruda Pereira, Vila do Encontro, Jabaquara, S\u00e3o Paulo, Regi\u00e3o Imediata de S\u00e3o Paulo, Regi\u00e3o Metropolitana de S\u00e3o Paulo, Regi\u00e3o Geogr\u00e1fica Intermedi\u00e1ria de S\u00e3o Paulo, S\u00e3o Paulo, Regi\u00e3o Sudeste, 04326-010, Brasil",
    "latitude": -23.6576577,
    "longitude": -46.6358578
  },
  "R. PALESTRA IT\u00c1LIA, 200 - PORT\u00c3O A - \u00c1GUA BRANCA": {},
  "AV. M\u00c1RIO DE ANDRADE, 664 - BARRA FUNDA": {
    "endereco": "Avenida M\u00e1rio de Andrade, Barra Funda, S\u00e3o Paulo, Regi\u00e3o Imediata de S\u00e3o Paulo, Regi\u00e3o Metropolitana de S\u00e3o Paulo, Regi\u00e3o Geogr\u00e1fica Intermedi\u00e1ria de S\u00e3o Paulo, S\u00e3o Paulo, Regi\u00e3o Sudeste, 05002-060, Brasil",
    "latitude": -23.5262233,
    "longitude": -46.6689073
  },
  "R. GUAICURUS, 1100 - \u00c1GUA BRANCA": {
    "endereco": "1100, Rua Guaicurus, Vila Romana, Lapa, S\u00e3o Paulo, Regi\u00e3o Imediata de S\u00e3o Paulo, Regi\u00e3o Metropolitana de S\u00e3o Paulo, Regi\u00e3o Geogr\u00e1fica Intermedi\u00e1ria de S\u00e3o Paulo, S\u00e3o Paulo, Regi\u00e3o Sudeste, 05033-002, Brasil",
    "latitude": -23.522299988174048,
    "longitude": -46.69634957619642
  },
  "RUA DOMINGOS RODRIGUES, 555 - LAPA": {
    "endereco": "Rua Domingos Rodrigues, Vila Romana, Lapa, S\u00e3o Paulo, Regi\u00e3o Imediata de S\u00e3o Paulo, Regi\u00e3o Metropolitana de S\u00e3o Paulo, Regi\u00e3o Geogr\u00e1fica Intermedi\u00e1ria de S\u00e3o Paulo, S\u00e3o Paulo, Regi\u00e3o Sudeste, 05075-000, Brasil",
    "latitude": -23.5218914,
    "longitude": -46.7074774
  },
  "R. JO\u00c3O MOURA, 613 - PINHEIROS": {
    "endereco": "613, Rua Jo\u00e3o Moura, Jardim Paulista, Bairro de Pinheiros, S\u00e3o Paulo, Regi\u00e3o Imediata de S\u00e3o Paulo, Regi\u00e3o Metropolitana de S\u00e3o Paulo, Regi\u00e3o Geogr\u00e1fica Intermedi\u00e1ria de S\u00e3o Paulo, S\u00e3o Paulo, Regi\u00e3o Sudeste, 05412-001, Brasil",
    "latitude": -23.5600608,
    "longitude": -46.6780935
  },
  "R. PEDRO SOARES DE ALMEIDA, 104 - VILA ANGLO": {
    "endereco": "Rua Pedro Soares de Almeida, Vila Anglo-Brasileira, Perdizes, S\u00e3o Paulo, Regi\u00e3o Imediata de S\u00e3o Paulo, Regi\u00e3o Metropolitana de S\u00e3o Paulo, Regi\u00e3o Geogr\u00e1fica Intermedi\u00e1ria de S\u00e3o Paulo, S\u00e3o Paulo, Regi\u00e3o Sudeste, 05029-030, Brasil",
    "latitude": -23.5421742,
    "longitude": -46.6947182
  },
  "R. LU\u00cdS G\u00d3IS, 1604 - VILA CLEMENTINO": {},
  "R. 24 DE MAIO, 109 - REP\u00daBLICA": {
    "endereco": "SESC 24 de Maio, 109, Rua Vinte e Quatro de Maio, Rep\u00fablica, S\u00e3o Paulo, Regi\u00e3o Imediata de S\u00e3o Paulo, Regi\u00e3o Metropolitana de S\u00e3o Paulo, Regi\u00e3o Geogr\u00e1fica Intermedi\u00e1ria de S\u00e3o Paulo, S\u00e3o Paulo, Regi\u00e3o Sudeste, 01041-001, Brasil",
    "latitude": -23.5441168,
    "longitude": -46.6400018
  },
  "R. IMACULADA CONCEI\u00c7\u00c3O, 151 - VILA BUARQUE": {},
  "R. JULES MARTIN, 54 - MOOCA": {},
  "R. TREZE DE MAIO, 830 - BELA VISTA": {
    "endereco": "Mundo Pensante, 830, Rua Treze de Maio, Bixiga, Bela Vista, S\u00e3o Paulo, Regi\u00e3o Imediata de S\u00e3o Paulo, Regi\u00e3o Metropolitana de S\u00e3o Paulo, Regi\u00e3o Geogr\u00e1fica Intermedi\u00e1ria de S\u00e3o Paulo, S\u00e3o Paulo, Regi\u00e3o Sudeste, 01327-000, Brasil",
    "latitude": -23.56056315,
    "longitude": -46.646361356173934
  },
  "R. LU\u00cdS MURAT, 370 - VILA MADALENA": {
    "endereco": "370, Rua Lu\u00eds Murat, Pinheiros, Bairro de Pinheiros, S\u00e3o Paulo, Regi\u00e3o Imediata de S\u00e3o Paulo, Regi\u00e3o Metropolitana de S\u00e3o Paulo, Regi\u00e3o Geogr\u00e1fica Intermedi\u00e1ria de S\u00e3o Paulo, S\u00e3o Paulo, Regi\u00e3o Sudeste, 05436-050, Brasil",
    "latitude": -23.5576579,
    "longitude": -46.686406
  },
  "AV. VALDEMAR FERREIRA, 53 - BUTANT\u00c3": {
    "endereco": "53, Avenida Valdemar Ferreira, Butant\u00e3, S\u00e3o Paulo, Regi\u00e3o Imediata de S\u00e3o Paulo, Regi\u00e3o Metropolitana de S\u00e3o Paulo, Regi\u00e3o Geogr\u00e1fica Intermedi\u00e1ria de S\u00e3o Paulo, S\u00e3o Paulo, Regi\u00e3o Sudeste, 05501-000, Brasil",
    "latitude": -23.5719168,
    "longitude": -46.7050761
  },
  "R. CAETANO PINTO - MOOCA": {},
  "R. CARDEAL ARCOVERDE, 2899 - PINHEIROS": {
    "endereco": "2899, Rua Cardeal Arcoverde, Pinheiros, Bairro de Pinheiros, S\u00e3o Paulo, Regi\u00e3o Imediata de S\u00e3o Paulo, Regi\u00e3o Metropolitana de S\u00e3o Paulo, Regi\u00e3o Geogr\u00e1fica Intermedi\u00e1ria de S\u00e3o Paulo, S\u00e3o Paulo, Regi\u00e3o Sudeste, 05407-004, Brasil",
    "latitude": -23.5693038,
    "longitude": -46.6949663
  },
  "LARGO DA MATRIZ DE NOSSA SENHORA DO \u00d3, 215 - FREGUESIA": {
    "endereco": "Largo da Matriz de Nossa Senhora do \u00d3, Nossa Senhora do \u00d3, Freguesia do \u00d3, S\u00e3o Paulo, Regi\u00e3o Imediata de S\u00e3o Paulo, Regi\u00e3o Metropolitana de S\u00e3o Paulo, Regi\u00e3o Geogr\u00e1fica Intermedi\u00e1ria de S\u00e3o Paulo, S\u00e3o Paulo, Regi\u00e3o Sudeste, 02925-040, Brasil",
    "latitude": -23.5012482,
    "longitude": -46.6985998
  },
  "PRA\u00c7A S\u00c3O CRISPIM - LAPA": {
    "endereco": "Pra\u00e7a S\u00e3o Crispim, Vila Romana, Lapa, S\u00e3o Paulo, Regi\u00e3o Imediata de S\u00e3o Paulo, Regi\u00e3o Metropolitana de S\u00e3o Paulo, Regi\u00e3o Geogr\u00e1fica Intermedi\u00e1ria de S\u00e3o Paulo, S\u00e3o Paulo, Regi\u00e3o Sudeste, 05050-080, Brasil",
    "latitude": -23.5281254,
    "longitude": -46.70558032701161
  },
  "R. PADRE CARVALHO, 769 - PINHEIROS": {
    "endereco": "769, Rua Padre Carvalho, Pinheiros, Bairro de Pinheiros, S\u00e3o Paulo, Regi\u00e3o Imediata de S\u00e3o Paulo, Regi\u00e3o Metropolitana de S\u00e3o Paulo, Regi\u00e3o Geogr\u00e1fica Intermedi\u00e1ria de S\u00e3o Paulo, S\u00e3o Paulo, Regi\u00e3o Sudeste, 05427-100, Brasil",
    "latitude": -23.5667636,
    "longitude": -46.6964277
  },
  "AL. EDUARDO PRADO, 450 - S\u00c9": {
    "endereco": "450, Alameda Eduardo Prado, Campos El\u00edsios, Santa Cec\u00edlia, S\u00e3o Paulo, Regi\u00e3o Imediata de S\u00e3o Paulo, Regi\u00e3o Metropolitana de S\u00e3o Paulo, Regi\u00e3o Geogr\u00e1fica Intermedi\u00e1ria de S\u00e3o Paulo, S\u00e3o Paulo, Regi\u00e3o Sudeste, 01218-012, Brasil",
    "latitude": -23.530690888083477,
    "longitude": -46.64938381513391
  },
  "R. WALTER PEREIRA CORREIA - CAPELA DO SOCORRO": {
    "endereco": "99\u00aa Junta de Servi\u00e7o Militar Capela do Socorro, 36, Rua Walter Pereira Correia, Jardim Iporanga, Cidade Dutra, S\u00e3o Paulo, Regi\u00e3o Imediata de S\u00e3o Paulo, Regi\u00e3o Metropolitana de S\u00e3o Paulo, Regi\u00e3o Geogr\u00e1fica Intermedi\u00e1ria de S\u00e3o Paulo, S\u00e3o Paulo, Regi\u00e3o Sudeste, 04827-130, Brasil",
    "latitude": -23.7209501,
    "longitude": -46.701948306103034
  },
  "PRA\u00c7A RIO DOS CAMPOS - LAPA": {
    "endereco": "Pra\u00e7a Domingos Viana, s/n, Parque S\u00e3o Jorge, Parque Calif\u00f3rnia, Campos dos Goytacazes, Regi\u00e3o Geogr\u00e1fica Imediata de Campos dos Goytacazes, Regi\u00e3o Geogr\u00e1fica Intermedi\u00e1ria de Campos dos Goytacazes, Rio de Janeiro, Regi\u00e3o Sudeste, 28013-085, Brasil",
    "latitude": -21.7593495,
    "longitude": -41.306108073370424
  },
  "R. VUPABUSSU, 115 - PINHEIROS": {
    "endereco": "Rua Vupabussu, Pinheiros, Bairro de Pinheiros, S\u00e3o Paulo, Regi\u00e3o Imediata de S\u00e3o Paulo, Regi\u00e3o Metropolitana de S\u00e3o Paulo, Regi\u00e3o Geogr\u00e1fica Intermedi\u00e1ria de S\u00e3o Paulo, S\u00e3o Paulo, Regi\u00e3o Sudeste, 05429-040, Brasil",
    "latitude": -23.559912,
    "longitude": -46.6996817
  },
  "R. \u00c1LVARO ANES, 88 - PINHEIROS": {
    "endereco": "88, Rua \u00c1lvaro Anes, Pinheiros, Bairro de Pinheiros, S\u00e3o Paulo, Regi\u00e3o Imediata de S\u00e3o Paulo, Regi\u00e3o Metropolitana de S\u00e3o Paulo, Regi\u00e3o Geogr\u00e1fica Intermedi\u00e1ria de S\u00e3o Paulo, S\u00e3o Paulo, Regi\u00e3o Sudeste, 05421-010, Brasil",
    "latitude": -23.5631067,
    "longitude": -46.6929941
  },
  "R. SOUZA LIMA, 295 - S\u00c9": {
    "endereco": "Rua Souza Lima, Nossa Senhora das Dores, Caruaru, Regi\u00e3o Geogr\u00e1fica Imediata de Caruaru, Regi\u00e3o Geogr\u00e1fica Intermedi\u00e1ria de Caruaru, Pernambuco, Regi\u00e3o Nordeste, 55002-190, Brasil",
    "latitude": -8.2887873,
    "longitude": -35.968612
  },
  "PRA\u00c7A DOM JOS\u00c9 GASPAR - S\u00c9": {
    "endereco": "Pra\u00e7a Dom Jos\u00e9 Gaspar, Rep\u00fablica, S\u00e3o Paulo, Regi\u00e3o Imediata de S\u00e3o Paulo, Regi\u00e3o Metropolitana de S\u00e3o Paulo, Regi\u00e3o Geogr\u00e1fica Intermedi\u00e1ria de S\u00e3o Paulo, S\u00e3o Paulo, Regi\u00e3o Sudeste, 01047-010, Brasil",
    "latitude": -23.547327099999997,
    "longitude": -46.64208350336425
  },
  "R. GALV\u00c3O BUENO, 34 - S\u00c9": {
    "endereco": "Marukai, 34, Rua Galv\u00e3o Bueno, Glic\u00e9rio, Liberdade, S\u00e3o Paulo, Regi\u00e3o Imediata de S\u00e3o Paulo, Regi\u00e3o Metropolitana de S\u00e3o Paulo, Regi\u00e3o Geogr\u00e1fica Intermedi\u00e1ria de S\u00e3o Paulo, S\u00e3o Paulo, Regi\u00e3o Sudeste, 01506-000, Brasil",
    "latitude": -23.5558639,
    "longitude": -46.63533
  },
  "R. DESEMBARGADOR HER\u00d3TIDES DA SILVA LIMA - VILA MARIANA": {},
  "AV. HELIO PELLEGRINO, 200 - VILA MARIANA": {},
  "AV. FRANCISCO DE CARVALHO, 51 - CAPELA DO SOCORRO": {},
  "R. LAGUNA - JARDIM CARAVELAS": {},
  "PRA\u00c7A CORN\u00c9LIA - LAPA": {
    "endereco": "Pra\u00e7a Corn\u00e9lia, Bairro Siciliano, Lapa, S\u00e3o Paulo, Regi\u00e3o Imediata de S\u00e3o Paulo, Regi\u00e3o Metropolitana de S\u00e3o Paulo, Regi\u00e3o Geogr\u00e1fica Intermedi\u00e1ria de S\u00e3o Paulo, S\u00e3o Paulo, Regi\u00e3o Sudeste, Brasil",
    "latitude": -23.52525515,
    "longitude": -46.6903083966635
  },
  "AV. PAULO VI, 112 - LAPA": {},
  "R. HENRIQUE SCHAUMANN, 567 - PINHEIROS": {
    "endereco": "Rua Henrique Schaumann, Pinheiros, Bairro de Pinheiros, S\u00e3o Paulo, Regi\u00e3o Imediata de S\u00e3o Paulo, Regi\u00e3o Metropolitana de S\u00e3o Paulo, Regi\u00e3o Geogr\u00e1fica Intermedi\u00e1ria de S\u00e3o Paulo, S\u00e3o Paulo, Regi\u00e3o Sudeste, 05413-021, Brasil",
    "latitude": -23.5568688,
    "longitude": -46.6829782
  },
  "AV. FARIA LIMA, 4150 - PINHEIROS": {
    "endereco": "Avenida Brigadeiro Faria Lima, Pinheiros, Bairro de Pinheiros, S\u00e3o Paulo, Regi\u00e3o Imediata de S\u00e3o Paulo, Regi\u00e3o Metropolitana de S\u00e3o Paulo, Regi\u00e3o Geogr\u00e1fica Intermedi\u00e1ria de S\u00e3o Paulo, S\u00e3o Paulo, Regi\u00e3o Sudeste, 05427-070, Brasil",
    "latitude": -23.5611999,
    "longitude": -46.6951547
  },
  "PRA\u00c7A PATEO DO COLLEGIO, 2 - S\u00c9": {},
  "R. FORTUNATO, 64 - S\u00c9": {
    "endereco": "64, Rua Fortunato, Santa Cec\u00edlia, S\u00e3o Paulo, Regi\u00e3o Imediata de S\u00e3o Paulo, Regi\u00e3o Metropolitana de S\u00e3o Paulo, Regi\u00e3o Geogr\u00e1fica Intermedi\u00e1ria de S\u00e3o Paulo, S\u00e3o Paulo, Regi\u00e3o Sudeste, 01224-030, Brasil",
    "latitude": -23.53941299,
    "longitude": -46.651505543333336
  },
  "R. ALPHONSUS GUIMAR\u00c3ES, 106 - TUCURUVI": {
    "endereco": "Rua Alphonsus de Guimar\u00e3ens, Santa Teresinha, Alto de Santana, Santana, S\u00e3o Paulo, Regi\u00e3o Imediata de S\u00e3o Paulo, Regi\u00e3o Metropolitana de S\u00e3o Paulo, Regi\u00e3o Geogr\u00e1fica Intermedi\u00e1ria de S\u00e3o Paulo, S\u00e3o Paulo, Regi\u00e3o Sudeste, 02404-030, Brasil",
    "latitude": -23.4919146,
    "longitude": -46.6274934
  },
  "AV. LUIS DUMONT VILLARES, 1501 - TUCURUVI": {
    "endereco": "1501, Avenida Luiz Dumont Villares, Vila Paulic\u00e9ia, Santana, S\u00e3o Paulo, Regi\u00e3o Imediata de S\u00e3o Paulo, Regi\u00e3o Metropolitana de S\u00e3o Paulo, Regi\u00e3o Geogr\u00e1fica Intermedi\u00e1ria de S\u00e3o Paulo, S\u00e3o Paulo, Regi\u00e3o Sudeste, 02239-000, Brasil",
    "latitude": -23.4893037,
    "longitude": -46.610117
  },
  "OBELISCO DO IBIRAPUERA - VILA MARIANA": {},
  "AV. MOEMA, 161 - VILA MARIANA": {},
  "R. REGENTE LE\u00d3N KANIEFSKY - BUTANT\u00c3": {},
  "R. DR. C\u00cdCERO DE ALENCAR, 305 - BUTANT\u00c3": {
    "endereco": "Rua Doutor C\u00edcero de Alencar, Butant\u00e3, S\u00e3o Paulo, Regi\u00e3o Imediata de S\u00e3o Paulo, Regi\u00e3o Metropolitana de S\u00e3o Paulo, Regi\u00e3o Geogr\u00e1fica Intermedi\u00e1ria de S\u00e3o Paulo, S\u00e3o Paulo, Regi\u00e3o Sudeste, 05580-080, Brasil",
    "latitude": -23.5726991,
    "longitude": -46.7182475
  },
  "R. MACURUR\u00c9, 135 - FREGUESIA": {},
  "AV. ITAQUERA, 7691 - ITAQUERA": {
    "endereco": "Avenida Itaquera, Vila Carmosina, Itaquera, S\u00e3o Paulo, Regi\u00e3o Imediata de S\u00e3o Paulo, Regi\u00e3o Metropolitana de S\u00e3o Paulo, Regi\u00e3o Geogr\u00e1fica Intermedi\u00e1ria de S\u00e3o Paulo, S\u00e3o Paulo, Regi\u00e3o Sudeste, 08290-595, Brasil",
    "latitude": -23.5457262,
    "longitude": -46.4609416
  },
  "R. BARRA DA ON\u00c7A - JA\u00c7AN\u00c3": {
    "endereco": "Rua Barra da On\u00e7a, Parque Edu Chaves, Ja\u00e7an\u00e3, S\u00e3o Paulo, Regi\u00e3o Imediata de S\u00e3o Paulo, Regi\u00e3o Metropolitana de S\u00e3o Paulo, Regi\u00e3o Geogr\u00e1fica Intermedi\u00e1ria de S\u00e3o Paulo, S\u00e3o Paulo, Regi\u00e3o Sudeste, 02230-150, Brasil",
    "latitude": -23.4836599,
    "longitude": -46.5641493
  },
  "PRA\u00c7A DR. VICENTE TRAMONTE GARCIA - LAPA": {},
  "AV. MARQU\u00caS DE S\u00c3O VICENTE, 230 - LAPA": {
    "endereco": "Rua Maria Marqu\u00eas Sabino, Cachoeira, S\u00e3o Jos\u00e9 da Lapa, Regi\u00e3o Geogr\u00e1fica Imediata de Belo Horizonte, Regi\u00e3o Metropolitana de Belo Horizonte, Regi\u00e3o Geogr\u00e1fica Intermedi\u00e1ria de Belo Horizonte, Minas Gerais, Regi\u00e3o Sudeste, 33350-000, Brasil",
    "latitude": -19.714723,
    "longitude": -43.9777796
  },
  "R. TAQUARI - MOOCA": {
    "endereco": "Rua Taquari, Mooca, S\u00e3o Paulo, Regi\u00e3o Imediata de S\u00e3o Paulo, Regi\u00e3o Metropolitana de S\u00e3o Paulo, Regi\u00e3o Geogr\u00e1fica Intermedi\u00e1ria de S\u00e3o Paulo, S\u00e3o Paulo, Regi\u00e3o Sudeste, 03166-010, Brasil",
    "latitude": -23.5546348,
    "longitude": -46.6000986
  },
  "R. SANTA CATARINA, 610 - MOOCA": {},
  "R. JAVARI, 99 - MOOCA": {
    "endereco": "99, Rua Javari, Mooca, S\u00e3o Paulo, Regi\u00e3o Imediata de S\u00e3o Paulo, Regi\u00e3o Metropolitana de S\u00e3o Paulo, Regi\u00e3o Geogr\u00e1fica Intermedi\u00e1ria de S\u00e3o Paulo, S\u00e3o Paulo, Regi\u00e3o Sudeste, 03112-100, Brasil",
    "latitude": -23.553970083257376,
    "longitude": -46.60516444094828
  },
  "R. VUPABUSSU, 217 - PINHEIROS": {
    "endereco": "Rua Vupabussu, Pinheiros, Bairro de Pinheiros, S\u00e3o Paulo, Regi\u00e3o Imediata de S\u00e3o Paulo, Regi\u00e3o Metropolitana de S\u00e3o Paulo, Regi\u00e3o Geogr\u00e1fica Intermedi\u00e1ria de S\u00e3o Paulo, S\u00e3o Paulo, Regi\u00e3o Sudeste, 05429-040, Brasil",
    "latitude": -23.559912,
    "longitude": -46.6996817
  },
  "PRA\u00c7A DOS OMAGUAS - PINHEIROS": {
    "endereco": "Pra\u00e7a dos Omagu\u00e1s, Pinheiros, Bairro de Pinheiros, S\u00e3o Paulo, Regi\u00e3o Imediata de S\u00e3o Paulo, Regi\u00e3o Metropolitana de S\u00e3o Paulo, Regi\u00e3o Geogr\u00e1fica Intermedi\u00e1ria de S\u00e3o Paulo, S\u00e3o Paulo, Regi\u00e3o Sudeste, Brasil",
    "latitude": -23.56235875,
    "longitude": -46.692203838648524
  },
  "R. BELMIRO BRAGA, 75 - PINHEIROS": {
    "endereco": "75, Rua Belmiro Braga, Pinheiros, Bairro de Pinheiros, S\u00e3o Paulo, Regi\u00e3o Imediata de S\u00e3o Paulo, Regi\u00e3o Metropolitana de S\u00e3o Paulo, Regi\u00e3o Geogr\u00e1fica Intermedi\u00e1ria de S\u00e3o Paulo, S\u00e3o Paulo, Regi\u00e3o Sudeste, 05432-020, Brasil",
    "latitude": -23.5601208,
    "longitude": -46.6871638
  },
  "R. DOS PINHEIROS, 1037 - PINHEIROS": {
    "endereco": "1037, Rua dos Pinheiros, Pinheiros, Bairro de Pinheiros, S\u00e3o Paulo, Regi\u00e3o Imediata de S\u00e3o Paulo, Regi\u00e3o Metropolitana de S\u00e3o Paulo, Regi\u00e3o Geogr\u00e1fica Intermedi\u00e1ria de S\u00e3o Paulo, S\u00e3o Paulo, Regi\u00e3o Sudeste, 05422-012, Brasil",
    "latitude": -23.5677506,
    "longitude": -46.6877301
  },
  "R. DOS PINHEIROS, 585 - PINHEIROS": {
    "endereco": "Rua dos Pinheiros, Pinheiros, Bairro de Pinheiros, S\u00e3o Paulo, Regi\u00e3o Imediata de S\u00e3o Paulo, Regi\u00e3o Metropolitana de S\u00e3o Paulo, Regi\u00e3o Geogr\u00e1fica Intermedi\u00e1ria de S\u00e3o Paulo, S\u00e3o Paulo, Regi\u00e3o Sudeste, 05402-200, Brasil",
    "latitude": -23.5644515,
    "longitude": -46.6785043
  },
  "AL. DOS UBIATANS, 8 - PLANALTO PAULISTA": {},
  "R. CRIST\u00d3V\u00c3O PEREIRA, 1370 - SANTO AMARO": {},
  "R. FRANCISCA MIQUELINA, 343 - S\u00c9": {
    "endereco": "Solar Paulista, 343, Rua Francisca Miquelina, Rep\u00fablica, S\u00e3o Paulo, Regi\u00e3o Imediata de S\u00e3o Paulo, Regi\u00e3o Metropolitana de S\u00e3o Paulo, Regi\u00e3o Geogr\u00e1fica Intermedi\u00e1ria de S\u00e3o Paulo, S\u00e3o Paulo, Regi\u00e3o Sudeste, 01316-000, Brasil",
    "latitude": -23.55492055,
    "longitude": -46.639863771731484
  },
  "PRA\u00c7A ANT\u00d4NIO PRADO - S\u00c9": {
    "endereco": "Pra\u00e7a Ant\u00f4nio Prado, Glic\u00e9rio, S\u00e9, S\u00e3o Paulo, Regi\u00e3o Imediata de S\u00e3o Paulo, Regi\u00e3o Metropolitana de S\u00e3o Paulo, Regi\u00e3o Geogr\u00e1fica Intermedi\u00e1ria de S\u00e3o Paulo, S\u00e3o Paulo, Regi\u00e3o Sudeste, 01010-010, Brasil",
    "latitude": -23.5454932,
    "longitude": -46.6346932
  },
  "PRA\u00c7A DA REP\u00daBLICA - S\u00c9": {
    "endereco": "Pra\u00e7a da Rep\u00fablica, S\u00e9, S\u00e9 e S\u00e3o Louren\u00e7o, Portalegre, Portugal",
    "latitude": 39.289624599999996,
    "longitude": -7.429793596230361
  },
  "PRA\u00c7A GENERAL CRAVEIRO LOPES - S\u00c9": {
    "endereco": "Pra\u00e7a General Craveiro Lopes, Rep\u00fablica, S\u00e3o Paulo, Regi\u00e3o Imediata de S\u00e3o Paulo, Regi\u00e3o Metropolitana de S\u00e3o Paulo, Regi\u00e3o Geogr\u00e1fica Intermedi\u00e1ria de S\u00e3o Paulo, S\u00e3o Paulo, Regi\u00e3o Sudeste, Brasil",
    "latitude": -23.550801049999997,
    "longitude": -46.64220555256283
  },
  "R. TREZE DE MAIO, 752 - S\u00c9": {
    "endereco": "752, Rua Treze de Maio, Bixiga, Bela Vista, S\u00e3o Paulo, Regi\u00e3o Imediata de S\u00e3o Paulo, Regi\u00e3o Metropolitana de S\u00e3o Paulo, Regi\u00e3o Geogr\u00e1fica Intermedi\u00e1ria de S\u00e3o Paulo, S\u00e3o Paulo, Regi\u00e3o Sudeste, 01327-000, Brasil",
    "latitude": -23.5598282256268,
    "longitude": -46.64628655098479
  },
  "R. MARTIM FRANCISCO, 529 - S\u00c9": {
    "endereco": "529, Rua Martim Francisco, Santa Cec\u00edlia, S\u00e3o Paulo, Regi\u00e3o Imediata de S\u00e3o Paulo, Regi\u00e3o Metropolitana de S\u00e3o Paulo, Regi\u00e3o Geogr\u00e1fica Intermedi\u00e1ria de S\u00e3o Paulo, S\u00e3o Paulo, Regi\u00e3o Sudeste, 01226-002, Brasil",
    "latitude": -23.54123839054242,
    "longitude": -46.654300645579205
  },
  "R. AUGUSTA, 1300 - S\u00c9": {
    "endereco": "Rua Augusta, S\u00e3o Nicolau, Santa Maria Maior, Lisboa, 1100-150, Portugal",
    "latitude": 38.7083834,
    "longitude": -9.1367909
  },
  "R. CONSELHEIRO RAMALHO, 992 - S\u00c9": {
    "endereco": "992, Rua Conselheiro Ramalho, Bixiga, Bela Vista, S\u00e3o Paulo, Regi\u00e3o Imediata de S\u00e3o Paulo, Regi\u00e3o Metropolitana de S\u00e3o Paulo, Regi\u00e3o Geogr\u00e1fica Intermedi\u00e1ria de S\u00e3o Paulo, S\u00e3o Paulo, Regi\u00e3o Sudeste, 01325-000, Brasil",
    "latitude": -23.5607051,
    "longitude": -46.6441584
  },
  "LARGO DO AROUCHE, 187 - S\u00c9": {
    "endereco": "187, Largo do Arouche, Vila Buarque, Rep\u00fablica, S\u00e3o Paulo, Regi\u00e3o Imediata de S\u00e3o Paulo, Regi\u00e3o Metropolitana de S\u00e3o Paulo, Regi\u00e3o Geogr\u00e1fica Intermedi\u00e1ria de S\u00e3o Paulo, S\u00e3o Paulo, Regi\u00e3o Sudeste, 01219-011, Brasil",
    "latitude": -23.5418647,
    "longitude": -46.6460048
  },
  "R. JOSE DOS REIS - VILA PRUDENTE": {
    "endereco": "Rua Jos\u00e9 dos Reis, Vila Prudente, S\u00e3o Paulo, Regi\u00e3o Imediata de S\u00e3o Paulo, Regi\u00e3o Metropolitana de S\u00e3o Paulo, Regi\u00e3o Geogr\u00e1fica Intermedi\u00e1ria de S\u00e3o Paulo, S\u00e3o Paulo, Regi\u00e3o Sudeste, 03139-040, Brasil",
    "latitude": -23.5856581,
    "longitude": -46.5767414
  },
  "R. DOUTOR S\u00c9RGIO MEIRA, 43 - BARRA FUNDA": {},
  "R. EST\u00caV\u00c3O LOPES - BUTANT\u00c3": {
    "endereco": "Rua Est\u00eav\u00e3o Lopes, Butant\u00e3, S\u00e3o Paulo, Regi\u00e3o Imediata de S\u00e3o Paulo, Regi\u00e3o Metropolitana de S\u00e3o Paulo, Regi\u00e3o Geogr\u00e1fica Intermedi\u00e1ria de S\u00e3o Paulo, S\u00e3o Paulo, Regi\u00e3o Sudeste, 05503-020, Brasil",
    "latitude": -23.5701914,
    "longitude": -46.7113437
  },
  "PRA\u00c7A JOS\u00c9 CLARA GON\u00c7ALVES - BUTANT\u00c3": {
    "endereco": "Pra\u00e7a Jos\u00e9 Clara Gon\u00e7alves, Butant\u00e3, S\u00e3o Paulo, Regi\u00e3o Imediata de S\u00e3o Paulo, Regi\u00e3o Metropolitana de S\u00e3o Paulo, Regi\u00e3o Geogr\u00e1fica Intermedi\u00e1ria de S\u00e3o Paulo, S\u00e3o Paulo, Regi\u00e3o Sudeste, Brasil",
    "latitude": -23.58725735,
    "longitude": -46.73593229061765
  },
  "PRA\u00c7A. ESCOLAR - CAPELA DO SOCORRO": {},
  "R. ANTONIO RATES - CASA VERDE": {},
  "R. CORONEL JOAQUIM DE FREITAS - CASA VERDE": {},
  "R. PADRE ESTANISLAU DE CAMPOS - CASA VERDE": {},
  "R. JO\u00c3O ROQUE - CASA VERDE": {},
  "R. PROJETADA, 1 - CIDADE ADEMAR": {
    "endereco": "Travessa Luiz Mazetti, Jardim Melo, Cidade Ademar, S\u00e3o Paulo, Regi\u00e3o Imediata de S\u00e3o Paulo, Regi\u00e3o Metropolitana de S\u00e3o Paulo, Regi\u00e3o Geogr\u00e1fica Intermedi\u00e1ria de S\u00e3o Paulo, S\u00e3o Paulo, Regi\u00e3o Sudeste, 04424-015, Brasil",
    "latitude": -23.6875104,
    "longitude": -46.6384301
  },
  "R. AMADIS - IPIRANGA": {
    "endereco": "Rua Amadis, Vila Independ\u00eancia, Ipiranga, S\u00e3o Paulo, Regi\u00e3o Imediata de S\u00e3o Paulo, Regi\u00e3o Metropolitana de S\u00e3o Paulo, Regi\u00e3o Geogr\u00e1fica Intermedi\u00e1ria de S\u00e3o Paulo, S\u00e3o Paulo, Regi\u00e3o Sudeste, 04222-000, Brasil",
    "latitude": -23.592867,
    "longitude": -46.5951848
  },
  "R. GASPAR FERNANDES, 274 - IPIRANGA": {
    "endereco": "274, Rua Gaspar Fernandes, Vila Monumento, Ipiranga, S\u00e3o Paulo, Regi\u00e3o Imediata de S\u00e3o Paulo, Regi\u00e3o Metropolitana de S\u00e3o Paulo, Regi\u00e3o Geogr\u00e1fica Intermedi\u00e1ria de S\u00e3o Paulo, S\u00e3o Paulo, Regi\u00e3o Sudeste, 01548-030, Brasil",
    "latitude": -23.574679650475034,
    "longitude": -46.61468218031721
  },
  "R. CHARLES DARWIN - JABAQUARA": {
    "endereco": "Rua Charles Darwin, Jardim Itacolomi, Jabaquara, S\u00e3o Paulo, Regi\u00e3o Imediata de S\u00e3o Paulo, Regi\u00e3o Metropolitana de S\u00e3o Paulo, Regi\u00e3o Geogr\u00e1fica Intermedi\u00e1ria de S\u00e3o Paulo, S\u00e3o Paulo, Regi\u00e3o Sudeste, 04378-500, Brasil",
    "latitude": -23.6553626,
    "longitude": -46.6572752
  },
  "PRA\u00c7A MARECHAL CARLOS MACHADO BITTENCOURT - LAPA": {
    "endereco": "Pra\u00e7a Marechal Carlos Machado Bittencourt, \u00c1gua Branca, Lapa, S\u00e3o Paulo, Regi\u00e3o Imediata de S\u00e3o Paulo, Regi\u00e3o Metropolitana de S\u00e3o Paulo, Regi\u00e3o Geogr\u00e1fica Intermedi\u00e1ria de S\u00e3o Paulo, S\u00e3o Paulo, Regi\u00e3o Sudeste, Brasil",
    "latitude": -23.51377715,
    "longitude": -46.6957769926818
  },
  "R. CARLOS WEBER, 988 - LAPA": {},
  "PRA\u00c7A C\u00cdVICA - LAPA": {
    "endereco": "Pra\u00e7a C\u00edvica, Vila Romana, Lapa, S\u00e3o Paulo, Regi\u00e3o Imediata de S\u00e3o Paulo, Regi\u00e3o Metropolitana de S\u00e3o Paulo, Regi\u00e3o Geogr\u00e1fica Intermedi\u00e1ria de S\u00e3o Paulo, S\u00e3o Paulo, Regi\u00e3o Sudeste, Brasil",
    "latitude": -23.5279807,
    "longitude": -46.70364225904365
  },
  "R. MIN. FERREIRA ALVES - LAPA": {},
  "R. VERDUN - M\u2019BOI MIRIM": {},
  "R. ITAPIRA - MOOCA": {},
  "R. BORGES DE FIGUEIREDO - MOOCA": {
    "endereco": "Rua Borges de Figueiredo, Mooca, S\u00e3o Paulo, Regi\u00e3o Imediata de S\u00e3o Paulo, Regi\u00e3o Metropolitana de S\u00e3o Paulo, Regi\u00e3o Geogr\u00e1fica Intermedi\u00e1ria de S\u00e3o Paulo, S\u00e3o Paulo, Regi\u00e3o Sudeste, 03110-001, Brasil",
    "latitude": -23.5629988,
    "longitude": -46.604682
  },
  "R. WIZARD, 252 - PINHEIROS": {},
  "R. MATEUS GROU, 600 - PINHEIROS": {
    "endereco": "Rua Mateus Grou, Pinheiros, Bairro de Pinheiros, S\u00e3o Paulo, Regi\u00e3o Imediata de S\u00e3o Paulo, Regi\u00e3o Metropolitana de S\u00e3o Paulo, Regi\u00e3o Geogr\u00e1fica Intermedi\u00e1ria de S\u00e3o Paulo, S\u00e3o Paulo, Regi\u00e3o Sudeste, 05415-040, Brasil",
    "latitude": -23.5642121,
    "longitude": -46.6843656
  },
  "R. FILINTO DE ALMEIDA, 58 - PINHEIROS": {
    "endereco": "Rua Filinto de Almeida, Vila Madalena, Bairro de Pinheiros, S\u00e3o Paulo, Regi\u00e3o Imediata de S\u00e3o Paulo, Regi\u00e3o Metropolitana de S\u00e3o Paulo, Regi\u00e3o Geogr\u00e1fica Intermedi\u00e1ria de S\u00e3o Paulo, S\u00e3o Paulo, Regi\u00e3o Sudeste, 05439-030, Brasil",
    "latitude": -23.5512282,
    "longitude": -46.6887257
  },
  "R. ANTONIO BICUDO, 304 - PINHEIROS": {
    "endereco": "Rua Ant\u00f4nio Bicudo, Pinheiros, Bairro de Pinheiros, S\u00e3o Paulo, Regi\u00e3o Imediata de S\u00e3o Paulo, Regi\u00e3o Metropolitana de S\u00e3o Paulo, Regi\u00e3o Geogr\u00e1fica Intermedi\u00e1ria de S\u00e3o Paulo, S\u00e3o Paulo, Regi\u00e3o Sudeste, 05418-010, Brasil",
    "latitude": -23.5660654,
    "longitude": -46.688517
  },
  "R. DA PAZ, 1209 - SANTO AMARO": {
    "endereco": "Rua da Paz, Santo Amaro, S\u00e3o Paulo, Regi\u00e3o Imediata de S\u00e3o Paulo, Regi\u00e3o Metropolitana de S\u00e3o Paulo, Regi\u00e3o Geogr\u00e1fica Intermedi\u00e1ria de S\u00e3o Paulo, S\u00e3o Paulo, Regi\u00e3o Sudeste, 04713-002, Brasil",
    "latitude": -23.6261241,
    "longitude": -46.707606
  },
  "R. BARRA FUNDA, 1071 - S\u00c9": {
    "endereco": "1071, Rua Barra Funda, Campos El\u00edsios, Santa Cec\u00edlia, S\u00e3o Paulo, Regi\u00e3o Imediata de S\u00e3o Paulo, Regi\u00e3o Metropolitana de S\u00e3o Paulo, Regi\u00e3o Geogr\u00e1fica Intermedi\u00e1ria de S\u00e3o Paulo, S\u00e3o Paulo, Regi\u00e3o Sudeste, 01152-000, Brasil",
    "latitude": -23.52650480544926,
    "longitude": -46.66004196451861
  },
  "R. GENERAL CARMONA - S\u00c9": {
    "endereco": "Rua General Carmona, Vila S\u00e1 Barbosa, Bom Retiro, S\u00e3o Paulo, Regi\u00e3o Imediata de S\u00e3o Paulo, Regi\u00e3o Metropolitana de S\u00e3o Paulo, Regi\u00e3o Geogr\u00e1fica Intermedi\u00e1ria de S\u00e3o Paulo, S\u00e3o Paulo, Regi\u00e3o Sudeste, 01102-030, Brasil",
    "latitude": -23.5212764,
    "longitude": -46.6285059
  },
  "R. DOS PROTESTANTES - S\u00c9": {
    "endereco": "Rua dos Protestantes, Santa Ifig\u00eania, Rep\u00fablica, S\u00e3o Paulo, Regi\u00e3o Imediata de S\u00e3o Paulo, Regi\u00e3o Metropolitana de S\u00e3o Paulo, Regi\u00e3o Geogr\u00e1fica Intermedi\u00e1ria de S\u00e3o Paulo, S\u00e3o Paulo, Regi\u00e3o Sudeste, 01212-030, Brasil",
    "latitude": -23.5359239,
    "longitude": -46.6374738
  },
  "AV. S\u00c3O JO\u00c3O, 719 - S\u00c9": {
    "endereco": "719, Avenida S\u00e3o Jo\u00e3o, Rep\u00fablica, S\u00e3o Paulo, Regi\u00e3o Imediata de S\u00e3o Paulo, Regi\u00e3o Metropolitana de S\u00e3o Paulo, Regi\u00e3o Geogr\u00e1fica Intermedi\u00e1ria de S\u00e3o Paulo, S\u00e3o Paulo, Regi\u00e3o Sudeste, 01035-100, Brasil",
    "latitude": -23.5421579,
    "longitude": -46.6408724
  },
  "R. CORONEL LUCIO ROSALES - TUCURUVI": {
    "endereco": "Rua Coronel L\u00facio Rosales, Santana, S\u00e3o Paulo, Regi\u00e3o Imediata de S\u00e3o Paulo, Regi\u00e3o Metropolitana de S\u00e3o Paulo, Regi\u00e3o Geogr\u00e1fica Intermedi\u00e1ria de S\u00e3o Paulo, S\u00e3o Paulo, Regi\u00e3o Sudeste, 02013-004, Brasil",
    "latitude": -23.502685,
    "longitude": -46.6366816
  },
  "R. SANTAN\u00c9SIA, 218 - BUTANT\u00c3": {
    "endereco": "Bartant\u00e3, 218, Rua Santan\u00e9sia, Butant\u00e3, S\u00e3o Paulo, Regi\u00e3o Imediata de S\u00e3o Paulo, Regi\u00e3o Metropolitana de S\u00e3o Paulo, Regi\u00e3o Geogr\u00e1fica Intermedi\u00e1ria de S\u00e3o Paulo, S\u00e3o Paulo, Regi\u00e3o Sudeste, 05580-050, Brasil",
    "latitude": -23.572946950000002,
    "longitude": -46.72050769202071
  },
  "AV. FRANCISCO DE CARVALHO - CAPELA DO SOCORRO": {},
  "R. BARRA DE SANTA ROSA - ERMELINO MATARAZZO": {
    "endereco": "Rua Barra de Santa Rosa, Ermelino Matarazzo, S\u00e3o Paulo, Regi\u00e3o Imediata de S\u00e3o Paulo, Regi\u00e3o Metropolitana de S\u00e3o Paulo, Regi\u00e3o Geogr\u00e1fica Intermedi\u00e1ria de S\u00e3o Paulo, S\u00e3o Paulo, Regi\u00e3o Sudeste, 03801-120, Brasil",
    "latitude": -23.4955356,
    "longitude": -46.4926936
  },
  "R. INACIO XAVIER DE CARVALHO - FREGUESIA": {
    "endereco": "Rua In\u00e1cio Xavier de Carvalho, Jardim Almanara, Brasil\u00e2ndia, S\u00e3o Paulo, Regi\u00e3o Imediata de S\u00e3o Paulo, Regi\u00e3o Metropolitana de S\u00e3o Paulo, Regi\u00e3o Geogr\u00e1fica Intermedi\u00e1ria de S\u00e3o Paulo, S\u00e3o Paulo, Regi\u00e3o Sudeste, 02765-000, Brasil",
    "latitude": -23.4759264,
    "longitude": -46.6760347
  },
  "R. FILIPPO JUVARA, 296 - ITAQUERA": {},
  "PRA\u00c7A BRASIL - ITAQUERA": {},
  "R. ALBA - JABAQUARA": {
    "endereco": "Rua Alba, Jabaquara, S\u00e3o Paulo, Regi\u00e3o Imediata de S\u00e3o Paulo, Regi\u00e3o Metropolitana de S\u00e3o Paulo, Regi\u00e3o Geogr\u00e1fica Intermedi\u00e1ria de S\u00e3o Paulo, S\u00e3o Paulo, Regi\u00e3o Sudeste, 04348-170, Brasil",
    "latitude": -23.641432,
    "longitude": -46.6548814
  },
  "R. APACE - JABAQUARA": {
    "endereco": "Rua Apac\u00ea, Vila do Encontro, Jabaquara, S\u00e3o Paulo, Regi\u00e3o Imediata de S\u00e3o Paulo, Regi\u00e3o Metropolitana de S\u00e3o Paulo, Regi\u00e3o Geogr\u00e1fica Intermedi\u00e1ria de S\u00e3o Paulo, S\u00e3o Paulo, Regi\u00e3o Sudeste, 04347-110, Brasil",
    "latitude": -23.6451863,
    "longitude": -46.645385
  },
  "R. ANITA COSTA - JABAQUARA": {
    "endereco": "Rua Anita Costa, Vila do Encontro, Jabaquara, S\u00e3o Paulo, Regi\u00e3o Imediata de S\u00e3o Paulo, Regi\u00e3o Metropolitana de S\u00e3o Paulo, Regi\u00e3o Geogr\u00e1fica Intermedi\u00e1ria de S\u00e3o Paulo, S\u00e3o Paulo, Regi\u00e3o Sudeste, 04308-001, Brasil",
    "latitude": -23.647425,
    "longitude": -46.6390392
  },
  "R. OT\u00cdLIA - PENHA": {
    "endereco": "Rua Ot\u00edlia, Vila Esperan\u00e7a, Penha, S\u00e3o Paulo, Regi\u00e3o Imediata de S\u00e3o Paulo, Regi\u00e3o Metropolitana de S\u00e3o Paulo, Regi\u00e3o Geogr\u00e1fica Intermedi\u00e1ria de S\u00e3o Paulo, S\u00e3o Paulo, Regi\u00e3o Sudeste, 03649-000, Brasil",
    "latitude": -23.5261643,
    "longitude": -46.5236342
  },
  "R. GIRASSOL, 67 - PINHEIROS": {
    "endereco": "67, Rua Girassol, Pinheiros, Bairro de Pinheiros, S\u00e3o Paulo, Regi\u00e3o Imediata de S\u00e3o Paulo, Regi\u00e3o Metropolitana de S\u00e3o Paulo, Regi\u00e3o Geogr\u00e1fica Intermedi\u00e1ria de S\u00e3o Paulo, S\u00e3o Paulo, Regi\u00e3o Sudeste, 05433-000, Brasil",
    "latitude": -23.5578437,
    "longitude": -46.6876042
  },
  "R. VUPABUSSU, 290 - PINHEIROS": {
    "endereco": "Rua Vupabussu, Pinheiros, Bairro de Pinheiros, S\u00e3o Paulo, Regi\u00e3o Imediata de S\u00e3o Paulo, Regi\u00e3o Metropolitana de S\u00e3o Paulo, Regi\u00e3o Geogr\u00e1fica Intermedi\u00e1ria de S\u00e3o Paulo, S\u00e3o Paulo, Regi\u00e3o Sudeste, 05429-040, Brasil",
    "latitude": -23.559912,
    "longitude": -46.6996817
  },
  "R. ARTHUR DE AZEVEDO, 570 - PINHEIROS": {},
  "R. DA CONSOLA\u00c7\u00c3O, 2621 - PINHEIROS": {},
  "R. ORIGINAL, 87 - PINHEIROS": {
    "endereco": "87, Rua Original, Vila Madalena, Bairro de Pinheiros, S\u00e3o Paulo, Regi\u00e3o Imediata de S\u00e3o Paulo, Regi\u00e3o Metropolitana de S\u00e3o Paulo, Regi\u00e3o Geogr\u00e1fica Intermedi\u00e1ria de S\u00e3o Paulo, S\u00e3o Paulo, Regi\u00e3o Sudeste, 05435-050, Brasil",
    "latitude": -23.5530396,
    "longitude": -46.6878106
  },
  "PRA\u00c7A PROF. RESENDE PUECH - PINHEIROS": {
    "endereco": "Pra\u00e7a Professor Resende Puech, Vila Madalena, Bairro de Pinheiros, S\u00e3o Paulo, Regi\u00e3o Imediata de S\u00e3o Paulo, Regi\u00e3o Metropolitana de S\u00e3o Paulo, Regi\u00e3o Geogr\u00e1fica Intermedi\u00e1ria de S\u00e3o Paulo, S\u00e3o Paulo, Regi\u00e3o Sudeste, Brasil",
    "latitude": -23.5592433,
    "longitude": -46.69631958153242
  },
  "LARGO DO CAMBUCI - S\u00c9": {
    "endereco": "Largo do Cambuci, Cambuci, S\u00e3o Paulo, Regi\u00e3o Imediata de S\u00e3o Paulo, Regi\u00e3o Metropolitana de S\u00e3o Paulo, Regi\u00e3o Geogr\u00e1fica Intermedi\u00e1ria de S\u00e3o Paulo, S\u00e3o Paulo, Regi\u00e3o Sudeste, 01523-010, Brasil",
    "latitude": -23.56298405,
    "longitude": -46.620802727101605
  },
  "LARGO DO PAISSANDU - S\u00c9": {
    "endereco": "Largo do Paissand\u00fa, Rep\u00fablica, S\u00e3o Paulo, Regi\u00e3o Imediata de S\u00e3o Paulo, Regi\u00e3o Metropolitana de S\u00e3o Paulo, Regi\u00e3o Geogr\u00e1fica Intermedi\u00e1ria de S\u00e3o Paulo, S\u00e3o Paulo, Regi\u00e3o Sudeste, 01034-010, Brasil",
    "latitude": -23.5430259,
    "longitude": -46.6381925
  },
  "R. PEDRO AM\u00c9RICO, 35 - S\u00c9": {
    "endereco": "35, Rua Pedro Am\u00e9rico, Rep\u00fablica, S\u00e3o Paulo, Regi\u00e3o Imediata de S\u00e3o Paulo, Regi\u00e3o Metropolitana de S\u00e3o Paulo, Regi\u00e3o Geogr\u00e1fica Intermedi\u00e1ria de S\u00e3o Paulo, S\u00e3o Paulo, Regi\u00e3o Sudeste, 01045-010, Brasil",
    "latitude": -23.5417334,
    "longitude": -46.6419555
  },
  "R. QUEDAS, 500 - VILA MARIA": {
    "endereco": "Rua Dona Maria Quedas, Vila Maria Quedas, Vila Maria, S\u00e3o Paulo, Regi\u00e3o Imediata de S\u00e3o Paulo, Regi\u00e3o Metropolitana de S\u00e3o Paulo, Regi\u00e3o Geogr\u00e1fica Intermedi\u00e1ria de S\u00e3o Paulo, S\u00e3o Paulo, Regi\u00e3o Sudeste, 02176-020, Brasil",
    "latitude": -23.5144634,
    "longitude": -46.5734219
  },
  "R. PELOTAS, 608 - VILA MARIANA": {
    "endereco": "Rua Pelotas, Moema, Vila Mariana, S\u00e3o Paulo, Regi\u00e3o Imediata de S\u00e3o Paulo, Regi\u00e3o Metropolitana de S\u00e3o Paulo, Regi\u00e3o Geogr\u00e1fica Intermedi\u00e1ria de S\u00e3o Paulo, S\u00e3o Paulo, Regi\u00e3o Sudeste, 04012-060, Brasil",
    "latitude": -23.5834844,
    "longitude": -46.6486344
  },
  "PRACA ROSA ALVES DA SILVA - VILA MARIANA": {
    "endereco": "Pra\u00e7a Rosa Alves da Silva, Jardim da Gl\u00f3ria, Vila Mariana, S\u00e3o Paulo, Regi\u00e3o Imediata de S\u00e3o Paulo, Regi\u00e3o Metropolitana de S\u00e3o Paulo, Regi\u00e3o Geogr\u00e1fica Intermedi\u00e1ria de S\u00e3o Paulo, S\u00e3o Paulo, Regi\u00e3o Sudeste, Brasil",
    "latitude": -23.579446750000002,
    "longitude": -46.63271280251123
  },
  "R. MARSELHESA - VILA MARIANA": {
    "endereco": "Rua Marselhesa, Vila Clementino, Vila Mariana, S\u00e3o Paulo, Regi\u00e3o Imediata de S\u00e3o Paulo, Regi\u00e3o Metropolitana de S\u00e3o Paulo, Regi\u00e3o Geogr\u00e1fica Intermedi\u00e1ria de S\u00e3o Paulo, S\u00e3o Paulo, Regi\u00e3o Sudeste, 04037-001, Brasil",
    "latitude": -23.5948434,
    "longitude": -46.6410216
  },
  "R. AGOSTINHO RODRIGUES FILHO, 107 - VILA MARIANA": {},
  "R. DR. ALMEIDA LIMA, 750 - MOOCA": {
    "endereco": "Par\u00f3quia Nossa Senhora de Aparecida dos Ferroviarios, 750, Rua Doutor Almeida Lima, Mooca, S\u00e3o Paulo, Regi\u00e3o Imediata de S\u00e3o Paulo, Regi\u00e3o Metropolitana de S\u00e3o Paulo, Regi\u00e3o Geogr\u00e1fica Intermedi\u00e1ria de S\u00e3o Paulo, S\u00e3o Paulo, Regi\u00e3o Sudeste, 03164-000, Brasil",
    "latitude": -23.548660050000002,
    "longitude": -46.6126468695055
  },
  "R. ALVIN\u00d3POLIS, 999 - PENHA": {
    "endereco": "Rua Alvin\u00f3polis, Vila Esperan\u00e7a, Penha, S\u00e3o Paulo, Regi\u00e3o Imediata de S\u00e3o Paulo, Regi\u00e3o Metropolitana de S\u00e3o Paulo, Regi\u00e3o Geogr\u00e1fica Intermedi\u00e1ria de S\u00e3o Paulo, S\u00e3o Paulo, Regi\u00e3o Sudeste, 03501-000, Brasil",
    "latitude": -23.5314759,
    "longitude": -46.534094
  },
  "R. CARIJ\u00d3S, 208 - LAPA": {
    "endereco": "Rua Carij\u00f3s, Bairro Siciliano, Lapa, S\u00e3o Paulo, Regi\u00e3o Imediata de S\u00e3o Paulo, Regi\u00e3o Metropolitana de S\u00e3o Paulo, Regi\u00e3o Geogr\u00e1fica Intermedi\u00e1ria de S\u00e3o Paulo, S\u00e3o Paulo, Regi\u00e3o Sudeste, 05041-000, Brasil",
    "latitude": -23.5227103,
    "longitude": -46.6898903
  },
  "R. GURUP\u00c1, 3 - PERDIZES": {
    "endereco": "Rua Gurup\u00e1, Vila Anglo-Brasileira, Perdizes, S\u00e3o Paulo, Regi\u00e3o Imediata de S\u00e3o Paulo, Regi\u00e3o Metropolitana de S\u00e3o Paulo, Regi\u00e3o Geogr\u00e1fica Intermedi\u00e1ria de S\u00e3o Paulo, S\u00e3o Paulo, Regi\u00e3o Sudeste, 05028-030, Brasil",
    "latitude": -23.5375742,
    "longitude": -46.6961401
  },
  "LARGO PADRE PERICLES - LAPA": {},
  "R. SOARES DE BARROS, 422 - IPIRANGA": {},
  "R. JOAQUIM ANTUNES, 910 - PINHEIROS": {
    "endereco": "Rua Joaquim Antunes, Pinheiros, Bairro de Pinheiros, S\u00e3o Paulo, Regi\u00e3o Imediata de S\u00e3o Paulo, Regi\u00e3o Metropolitana de S\u00e3o Paulo, Regi\u00e3o Geogr\u00e1fica Intermedi\u00e1ria de S\u00e3o Paulo, S\u00e3o Paulo, Regi\u00e3o Sudeste, 05422-010, Brasil",
    "latitude": -23.5654159,
    "longitude": -46.6807169
  },
  "AV. PROFESSOR ALCEU MAYNARD ARA\u00daJO, 650 - SANTO AMARO": {
    "endereco": "Avenida Professor Alceu Maynard Ara\u00fajo, Santo Amaro, S\u00e3o Paulo, Regi\u00e3o Imediata de S\u00e3o Paulo, Regi\u00e3o Metropolitana de S\u00e3o Paulo, Regi\u00e3o Geogr\u00e1fica Intermedi\u00e1ria de S\u00e3o Paulo, S\u00e3o Paulo, Regi\u00e3o Sudeste, 04729-060, Brasil",
    "latitude": -23.6364751,
    "longitude": -46.7153864
  },
  "R. CORA\u00c7\u00c3O DA EUROPA - S\u00c9": {
    "endereco": "Rua Cora\u00e7\u00e3o da Europa, Bixiga, Bela Vista, S\u00e3o Paulo, Regi\u00e3o Imediata de S\u00e3o Paulo, Regi\u00e3o Metropolitana de S\u00e3o Paulo, Regi\u00e3o Geogr\u00e1fica Intermedi\u00e1ria de S\u00e3o Paulo, S\u00e3o Paulo, Regi\u00e3o Sudeste, 01328-020, Brasil",
    "latitude": -23.5576424,
    "longitude": -46.6480197
  },
  "AV. ENGENHEIRO CAETANO ALVARES, 7900 - TUCURUVI": {},
  "R. PAOLO AGOSTIN - BUTANT\u00c3": {},
  "R. JACINTO PEREIRA - JARAGU\u00c1": {
    "endereco": "Rua Jacinto Pereira, Parque Na\u00e7\u00f5es Unidas, Jaragu\u00e1, S\u00e3o Paulo, Regi\u00e3o Imediata de S\u00e3o Paulo, Regi\u00e3o Metropolitana de S\u00e3o Paulo, Regi\u00e3o Geogr\u00e1fica Intermedi\u00e1ria de S\u00e3o Paulo, S\u00e3o Paulo, Regi\u00e3o Sudeste, 02991-000, Brasil",
    "latitude": -23.4496321,
    "longitude": -46.7292282
  },
  "R. HORACIO LANE, 21 - PINHEIROS": {
    "endereco": "\u00d3 do Borogod\u00f3 samba, 21, Rua Hor\u00e1cio Lane, Pinheiros, Bairro de Pinheiros, S\u00e3o Paulo, Regi\u00e3o Imediata de S\u00e3o Paulo, Regi\u00e3o Metropolitana de S\u00e3o Paulo, Regi\u00e3o Geogr\u00e1fica Intermedi\u00e1ria de S\u00e3o Paulo, S\u00e3o Paulo, Regi\u00e3o Sudeste, 05432-030, Brasil",
    "latitude": -23.5601965,
    "longitude": -46.6862159
  },
  "R. MOURATO COELHO, 1300 - PINHEIROS": {
    "endereco": "Rua Mourato Coelho, Pinheiros, Bairro de Pinheiros, S\u00e3o Paulo, Regi\u00e3o Imediata de S\u00e3o Paulo, Regi\u00e3o Metropolitana de S\u00e3o Paulo, Regi\u00e3o Geogr\u00e1fica Intermedi\u00e1ria de S\u00e3o Paulo, S\u00e3o Paulo, Regi\u00e3o Sudeste, 05417-002, Brasil",
    "latitude": -23.5592794,
    "longitude": -46.6905717
  },
  "R. GUMERCINDO SARAIVA, 350 - PINHEIROS": {
    "endereco": "Rua Gumercindo Saraiva, Jardim Europa, Bairro de Pinheiros, S\u00e3o Paulo, Regi\u00e3o Imediata de S\u00e3o Paulo, Regi\u00e3o Metropolitana de S\u00e3o Paulo, Regi\u00e3o Geogr\u00e1fica Intermedi\u00e1ria de S\u00e3o Paulo, S\u00e3o Paulo, Regi\u00e3o Sudeste, 01449-070, Brasil",
    "latitude": -23.5790085,
    "longitude": -46.6821159
  },
  "AV. DOS METALURGICOS, 1113 - CIDADE TIRADENTES": {
    "endereco": "G.R.E.S Pr\u00edncipe Negro de Cidade Tiradentes, 1113, Avenida dos Metal\u00fargicos, Jardim Santa Edwiges, Cidade Tiradentes, S\u00e3o Paulo, Regi\u00e3o Imediata de S\u00e3o Paulo, Regi\u00e3o Metropolitana de S\u00e3o Paulo, Regi\u00e3o Geogr\u00e1fica Intermedi\u00e1ria de S\u00e3o Paulo, S\u00e3o Paulo, Regi\u00e3o Sudeste, 08471-000, Brasil",
    "latitude": -23.59219755,
    "longitude": -46.406628470305876
  },
  "PRA\u00c7A MARIQUINHA SCIASCIA, 26 - JA\u00c7AN\u00c3": {
    "endereco": "Pra\u00e7a Dona Mariquinha Sciascia, Vila Rosa, Trememb\u00e9, S\u00e3o Paulo, Regi\u00e3o Imediata de S\u00e3o Paulo, Regi\u00e3o Metropolitana de S\u00e3o Paulo, Regi\u00e3o Geogr\u00e1fica Intermedi\u00e1ria de S\u00e3o Paulo, S\u00e3o Paulo, Regi\u00e3o Sudeste, 02370-080, Brasil",
    "latitude": -23.4592445,
    "longitude": -46.6236312
  },
  "R. MINISTRO FERREIRA ALVES - LAPA": {
    "endereco": "Rua Ministro Ferreira Alves, Lapa, Perdizes, S\u00e3o Paulo, Regi\u00e3o Imediata de S\u00e3o Paulo, Regi\u00e3o Metropolitana de S\u00e3o Paulo, Regi\u00e3o Geogr\u00e1fica Intermedi\u00e1ria de S\u00e3o Paulo, S\u00e3o Paulo, Regi\u00e3o Sudeste, 05009-060, Brasil",
    "latitude": -23.5274861,
    "longitude": -46.6890907
  },
  "R. MINERVA, 188 - LAPA": {},
  "AV. VIEIRA DE CARVALHO - S\u00c9": {
    "endereco": "Avenida Vieira de Carvalho, Rep\u00fablica, S\u00e3o Paulo, Regi\u00e3o Imediata de S\u00e3o Paulo, Regi\u00e3o Metropolitana de S\u00e3o Paulo, Regi\u00e3o Geogr\u00e1fica Intermedi\u00e1ria de S\u00e3o Paulo, S\u00e3o Paulo, Regi\u00e3o Sudeste, 01210-010, Brasil",
    "latitude": -23.5423328,
    "longitude": -46.6432182
  },
  "R. MARTIM FRANCISCO, 294 - S\u00c9": {
    "endereco": "294, Rua Martim Francisco, Santa Cec\u00edlia, S\u00e3o Paulo, Regi\u00e3o Imediata de S\u00e3o Paulo, Regi\u00e3o Metropolitana de S\u00e3o Paulo, Regi\u00e3o Geogr\u00e1fica Intermedi\u00e1ria de S\u00e3o Paulo, S\u00e3o Paulo, Regi\u00e3o Sudeste, 01226-002, Brasil",
    "latitude": -23.53965154944646,
    "longitude": -46.65276039341519
  },
  "R. BARONESA DE ITU, 436 - S\u00c9": {
    "endereco": "Delight P\u00e3es Artesanais, 436, Rua Baronesa de Itu, Santa Cec\u00edlia, S\u00e3o Paulo, Regi\u00e3o Imediata de S\u00e3o Paulo, Regi\u00e3o Metropolitana de S\u00e3o Paulo, Regi\u00e3o Geogr\u00e1fica Intermedi\u00e1ria de S\u00e3o Paulo, S\u00e3o Paulo, Regi\u00e3o Sudeste, 01231-000, Brasil",
    "latitude": -23.53929985,
    "longitude": -46.65718907320887
  },
  "PRA\u00c7A CEL. FERNANDO PRESTES - S\u00c9": {
    "endereco": "Pra\u00e7a Coronel Fernando Prestes, Jardim Santa Clara, Centro, Sorocaba, Regi\u00e3o Imediata de Sorocaba, Regi\u00e3o Metropolitana de Sorocaba, Regi\u00e3o Geogr\u00e1fica Intermedi\u00e1ria de Sorocaba, S\u00e3o Paulo, Regi\u00e3o Sudeste, 18010-060, Brasil",
    "latitude": -23.500226650000002,
    "longitude": -47.457805616361654
  },
  "R. APA, 78 - S\u00c9": {
    "endereco": "Rua Apa, Cai\u00e7aras, Regional Noroeste, Belo Horizonte, Regi\u00e3o Geogr\u00e1fica Imediata de Belo Horizonte, Regi\u00e3o Metropolitana de Belo Horizonte, Regi\u00e3o Geogr\u00e1fica Intermedi\u00e1ria de Belo Horizonte, Minas Gerais, Regi\u00e3o Sudeste, 30770-550, Brasil",
    "latitude": -19.905084,
    "longitude": -43.9676932
  },
  "R. RIBEIRO DE ALMEIDA, 88 - S\u00c9": {
    "endereco": "Rua Ribeiro de Almeida, Centro, Maric\u00e1, Regi\u00e3o Geogr\u00e1fica Imediata do Rio de Janeiro, Regi\u00e3o Metropolitana do Rio de Janeiro, Regi\u00e3o Geogr\u00e1fica Intermedi\u00e1ria do Rio de Janeiro, Rio de Janeiro, Regi\u00e3o Sudeste, 24901-000, Brasil",
    "latitude": -22.9179748,
    "longitude": -42.8176823
  },
  "R. EMB. JO\u00c3O NEVES DA FONTOURA, 306 - TUCURUVI": {
    "endereco": "Rua Embaixador Jo\u00e3o Neves da Fontoura, Santana, S\u00e3o Paulo, Regi\u00e3o Imediata de S\u00e3o Paulo, Regi\u00e3o Metropolitana de S\u00e3o Paulo, Regi\u00e3o Geogr\u00e1fica Intermedi\u00e1ria de S\u00e3o Paulo, S\u00e3o Paulo, Regi\u00e3o Sudeste, 02013-040, Brasil",
    "latitude": -23.5017977,
    "longitude": -46.6337531
  },
  "R. GRANITO - VILA PRUDENTE": {
    "endereco": "Rua Granito, Vila Alpina, Vila Prudente, S\u00e3o Paulo, Regi\u00e3o Imediata de S\u00e3o Paulo, Regi\u00e3o Metropolitana de S\u00e3o Paulo, Regi\u00e3o Geogr\u00e1fica Intermedi\u00e1ria de S\u00e3o Paulo, S\u00e3o Paulo, Regi\u00e3o Sudeste, 09550-580, Brasil",
    "latitude": -23.6083316,
    "longitude": -46.5538483
  },
  "R. SANTA EUDOXIA, 1000 - CASA VERDE": {
    "endereco": "Rua Santa Eud\u00f3xia, Casa Verde Alta, Casa Verde, S\u00e3o Paulo, Regi\u00e3o Imediata de S\u00e3o Paulo, Regi\u00e3o Metropolitana de S\u00e3o Paulo, Regi\u00e3o Geogr\u00e1fica Intermedi\u00e1ria de S\u00e3o Paulo, S\u00e3o Paulo, Regi\u00e3o Sudeste, 02533-010, Brasil",
    "latitude": -23.4980054,
    "longitude": -46.6554734
  },
  "R. DOBRADA - CASA VERDE": {
    "endereco": "Rua Dobrada, Jardim S\u00e3o Bento, Casa Verde, S\u00e3o Paulo, Regi\u00e3o Imediata de S\u00e3o Paulo, Regi\u00e3o Metropolitana de S\u00e3o Paulo, Regi\u00e3o Geogr\u00e1fica Intermedi\u00e1ria de S\u00e3o Paulo, S\u00e3o Paulo, Regi\u00e3o Sudeste, 02524-020, Brasil",
    "latitude": -23.5062135,
    "longitude": -46.6528039
  },
  "R. CEL TRIST\u00c3O, 203 - FREGUESIA": {
    "endereco": "Rua Coronel Trist\u00e3o, Nossa Senhora do \u00d3, Freguesia do \u00d3, S\u00e3o Paulo, Regi\u00e3o Imediata de S\u00e3o Paulo, Regi\u00e3o Metropolitana de S\u00e3o Paulo, Regi\u00e3o Geogr\u00e1fica Intermedi\u00e1ria de S\u00e3o Paulo, S\u00e3o Paulo, Regi\u00e3o Sudeste, 02926-000, Brasil",
    "latitude": -23.5001409,
    "longitude": -46.6985465
  },
  "R. MANUEL DE SOUZA AZEVEDO, 45 - FREGUESIA": {},
  "R. DOS SOROCABANOS - IPIRANGA": {
    "endereco": "Rua dos Sorocabanos, Vila Monumento, Ipiranga, S\u00e3o Paulo, Regi\u00e3o Imediata de S\u00e3o Paulo, Regi\u00e3o Metropolitana de S\u00e3o Paulo, Regi\u00e3o Geogr\u00e1fica Intermedi\u00e1ria de S\u00e3o Paulo, S\u00e3o Paulo, Regi\u00e3o Sudeste, 04202-000, Brasil",
    "latitude": -23.5800029,
    "longitude": -46.6079027
  },
  "R. JO\u00c3O AMADO COUTINHO, 1009 - JARAGU\u00c1": {
    "endereco": "Rua Jo\u00e3o Amado Coutinho, Jardim Pirituba, Jaragu\u00e1, S\u00e3o Paulo, Regi\u00e3o Imediata de S\u00e3o Paulo, Regi\u00e3o Metropolitana de S\u00e3o Paulo, Regi\u00e3o Geogr\u00e1fica Intermedi\u00e1ria de S\u00e3o Paulo, S\u00e3o Paulo, Regi\u00e3o Sudeste, 02985-000, Brasil",
    "latitude": -23.4481814,
    "longitude": -46.7170757
  },
  "R. LUZIANIA - JARDIM NORDESTE": {
    "endereco": "Rua Luzi\u00e2nia, Jardim Nordeste, Artur Alvim, S\u00e3o Paulo, Regi\u00e3o Imediata de S\u00e3o Paulo, Regi\u00e3o Metropolitana de S\u00e3o Paulo, Regi\u00e3o Geogr\u00e1fica Intermedi\u00e1ria de S\u00e3o Paulo, S\u00e3o Paulo, Regi\u00e3o Sudeste, 03691-130, Brasil",
    "latitude": -23.533446,
    "longitude": -46.4842221
  },
  "R. B\u00c1RBARA HELIODORA, 289 - LAPA": {
    "endereco": "Rua B\u00e1rbara Heliodora, Bairro Siciliano, Lapa, S\u00e3o Paulo, Regi\u00e3o Imediata de S\u00e3o Paulo, Regi\u00e3o Metropolitana de S\u00e3o Paulo, Regi\u00e3o Geogr\u00e1fica Intermedi\u00e1ria de S\u00e3o Paulo, S\u00e3o Paulo, Regi\u00e3o Sudeste, 05044-040, Brasil",
    "latitude": -23.5321512,
    "longitude": -46.6936125
  },
  "R. FAUSTOLO, 480 - LAPA": {
    "endereco": "480, Rua Faustolo, Vila Romana, Lapa, S\u00e3o Paulo, Regi\u00e3o Imediata de S\u00e3o Paulo, Regi\u00e3o Metropolitana de S\u00e3o Paulo, Regi\u00e3o Geogr\u00e1fica Intermedi\u00e1ria de S\u00e3o Paulo, S\u00e3o Paulo, Regi\u00e3o Sudeste, 05041-000, Brasil",
    "latitude": -23.52384747950044,
    "longitude": -46.69011179076599
  },
  "R. DOS ORFE\u00d5ES - M\u2019BOI MIRIM": {},
  "AV. LUIZ GUSHIKEN, 548 - M\u2019BOI MIRIM": {},
  "R. SERRA DE JUR\u00c9A - MOOCA": {},
  "PRA\u00c7A DILVA GOMES - PENHA": {},
  "PRA\u00c7A MICAELA VIEIRA - PENHA DE FRAN\u00c7A": {
    "endereco": "Pra\u00e7a Dona Micaela Vieira, Vila La\u00eds, Penha, S\u00e3o Paulo, Regi\u00e3o Imediata de S\u00e3o Paulo, Regi\u00e3o Metropolitana de S\u00e3o Paulo, Regi\u00e3o Geogr\u00e1fica Intermedi\u00e1ria de S\u00e3o Paulo, S\u00e3o Paulo, Regi\u00e3o Sudeste, Brasil",
    "latitude": -23.5231494,
    "longitude": -46.545038696563594
  },
  "R. BELMIRO BRAGA, 83 - PINHEIROS": {
    "endereco": "83, Rua Belmiro Braga, Pinheiros, Bairro de Pinheiros, S\u00e3o Paulo, Regi\u00e3o Imediata de S\u00e3o Paulo, Regi\u00e3o Metropolitana de S\u00e3o Paulo, Regi\u00e3o Geogr\u00e1fica Intermedi\u00e1ria de S\u00e3o Paulo, S\u00e3o Paulo, Regi\u00e3o Sudeste, 05432-020, Brasil",
    "latitude": -23.5600755,
    "longitude": -46.6871794
  },
  "R. SOARES DE BARROS - PINHEIROS": {},
  "R. CAPIT\u00c3O OT\u00c1VIO MACHADO, 818 - SANTO AMARO": {
    "endereco": "Rua Capit\u00e3o Ot\u00e1vio Machado, Santo Amaro, S\u00e3o Paulo, Regi\u00e3o Imediata de S\u00e3o Paulo, Regi\u00e3o Metropolitana de S\u00e3o Paulo, Regi\u00e3o Geogr\u00e1fica Intermedi\u00e1ria de S\u00e3o Paulo, S\u00e3o Paulo, Regi\u00e3o Sudeste, 04718-001, Brasil",
    "latitude": -23.6334051,
    "longitude": -46.7036774
  },
  "R. CONSELHEIRO BROTERO, 385 - S\u00c9": {
    "endereco": "385, Rua Conselheiro Brotero, Santa Cec\u00edlia, S\u00e3o Paulo, Regi\u00e3o Imediata de S\u00e3o Paulo, Regi\u00e3o Metropolitana de S\u00e3o Paulo, Regi\u00e3o Geogr\u00e1fica Intermedi\u00e1ria de S\u00e3o Paulo, S\u00e3o Paulo, Regi\u00e3o Sudeste, 01154-000, Brasil",
    "latitude": -23.530284541675748,
    "longitude": -46.65735558283728
  },
  "R. TREZE DE MAIO, 80 - S\u00c9": {
    "endereco": "80, Rua Treze de Maio, Centro, Vit\u00f3ria, Regi\u00e3o Geogr\u00e1fica Imediata de Vit\u00f3ria, Regi\u00e3o Metropolitana da Grande Vit\u00f3ria, Regi\u00e3o Geogr\u00e1fica Intermedi\u00e1ria de Vit\u00f3ria, Esp\u00edrito Santo, Regi\u00e3o Sudeste, 29015-030, Brasil",
    "latitude": -20.318727799999998,
    "longitude": -40.33715860585573
  },
  "R. BAR\u00c3O DE TATU\u00cd, 282 - S\u00c9": {
    "endereco": "282, Rua Bar\u00e3o de Tatu\u00ed, Santa Cec\u00edlia, S\u00e3o Paulo, Regi\u00e3o Imediata de S\u00e3o Paulo, Regi\u00e3o Metropolitana de S\u00e3o Paulo, Regi\u00e3o Geogr\u00e1fica Intermedi\u00e1ria de S\u00e3o Paulo, S\u00e3o Paulo, Regi\u00e3o Sudeste, 01226-030, Brasil",
    "latitude": -23.538412530930223,
    "longitude": -46.653966005998306
  },
  "R. LAVRADIO, 582 - S\u00c9": {
    "endereco": "582, Rua Lavradio, Santa Cec\u00edlia, S\u00e3o Paulo, Regi\u00e3o Imediata de S\u00e3o Paulo, Regi\u00e3o Metropolitana de S\u00e3o Paulo, Regi\u00e3o Geogr\u00e1fica Intermedi\u00e1ria de S\u00e3o Paulo, S\u00e3o Paulo, Regi\u00e3o Sudeste, 01154-020, Brasil",
    "latitude": -23.527636783432914,
    "longitude": -46.65900757945467
  },
  "R. SALETE - TUCURUVI": {
    "endereco": "Rua Salete, Santana, S\u00e3o Paulo, Regi\u00e3o Imediata de S\u00e3o Paulo, Regi\u00e3o Metropolitana de S\u00e3o Paulo, Regi\u00e3o Geogr\u00e1fica Intermedi\u00e1ria de S\u00e3o Paulo, S\u00e3o Paulo, Regi\u00e3o Sudeste, 02017-010, Brasil",
    "latitude": -23.5015291,
    "longitude": -46.6272152
  },
  "R. DO BOSQUE, 1651 - BARRA FUNDA": {
    "endereco": "1651, Rua do Bosque, Barra Funda, S\u00e3o Paulo, Regi\u00e3o Imediata de S\u00e3o Paulo, Regi\u00e3o Metropolitana de S\u00e3o Paulo, Regi\u00e3o Geogr\u00e1fica Intermedi\u00e1ria de S\u00e3o Paulo, S\u00e3o Paulo, Regi\u00e3o Sudeste, 01136-000, Brasil",
    "latitude": -23.52282057433698,
    "longitude": -46.66426599292789
  },
  "PRA\u00c7A ELIS REGINA - BUTANT\u00c3": {
    "endereco": "Pra\u00e7a Elis Regina, Butant\u00e3, S\u00e3o Paulo, Regi\u00e3o Imediata de S\u00e3o Paulo, Regi\u00e3o Metropolitana de S\u00e3o Paulo, Regi\u00e3o Geogr\u00e1fica Intermedi\u00e1ria de S\u00e3o Paulo, S\u00e3o Paulo, Regi\u00e3o Sudeste, Brasil",
    "latitude": -23.5752612,
    "longitude": -46.72981722869
  },
  "AV. PROF. DR. TEL\u00caMACO HIPPOLYTO DE MACEDO VAN LANGENDONCK - CAMPO LIMPO": {},
  "R. DR. RUI RODRIGUES DORIA - CAPELA DO SOCORRO": {},
  "AV. DO ARVOREIRO, 932 - CAPELA DO SOCORRO": {},
  "AV. CUPEC\u00ca, 1605 - CIDADE ADEMAR": {
    "endereco": "Avenida Cupec\u00ea, Vila S\u00e3o Paulo, Cidade Ademar, S\u00e3o Paulo, Regi\u00e3o Imediata de S\u00e3o Paulo, Regi\u00e3o Metropolitana de S\u00e3o Paulo, Regi\u00e3o Geogr\u00e1fica Intermedi\u00e1ria de S\u00e3o Paulo, S\u00e3o Paulo, Regi\u00e3o Sudeste, 04368-040, Brasil",
    "latitude": -23.654416,
    "longitude": -46.6698357
  },
  "LARGO DA MATRIZ DE NOSSA SENHORA DO \u00d3, 138 - FREGUESIA": {
    "endereco": "Largo da Matriz de Nossa Senhora do \u00d3, Nossa Senhora do \u00d3, Freguesia do \u00d3, S\u00e3o Paulo, Regi\u00e3o Imediata de S\u00e3o Paulo, Regi\u00e3o Metropolitana de S\u00e3o Paulo, Regi\u00e3o Geogr\u00e1fica Intermedi\u00e1ria de S\u00e3o Paulo, S\u00e3o Paulo, Regi\u00e3o Sudeste, 02925-040, Brasil",
    "latitude": -23.5012482,
    "longitude": -46.6985998
  },
  "R. DOS SOROCABANOS, 148 - IPIRANGA": {
    "endereco": "Rua dos Sorocabanos, Vila Monumento, Ipiranga, S\u00e3o Paulo, Regi\u00e3o Imediata de S\u00e3o Paulo, Regi\u00e3o Metropolitana de S\u00e3o Paulo, Regi\u00e3o Geogr\u00e1fica Intermedi\u00e1ria de S\u00e3o Paulo, S\u00e3o Paulo, Regi\u00e3o Sudeste, 04202-000, Brasil",
    "latitude": -23.5800029,
    "longitude": -46.6079027
  },
  "R. S\u00c3O SILVESTRE, 200 - IPIRANGA": {
    "endereco": "Ipiranga, Rua Rio Branco, Jardim Louren\u00e7o, Amparo, Regi\u00e3o Imediata de Amparo, Regi\u00e3o Geogr\u00e1fica Intermedi\u00e1ria de Campinas, S\u00e3o Paulo, Regi\u00e3o Sudeste, 13904-020, Brasil",
    "latitude": -22.7088724,
    "longitude": -46.7733605
  },
  "R. DOS ITUANOS - IPIRANGA": {
    "endereco": "Rua dos Ituanos, Vila Monumento, Ipiranga, S\u00e3o Paulo, Regi\u00e3o Imediata de S\u00e3o Paulo, Regi\u00e3o Metropolitana de S\u00e3o Paulo, Regi\u00e3o Geogr\u00e1fica Intermedi\u00e1ria de S\u00e3o Paulo, S\u00e3o Paulo, Regi\u00e3o Sudeste, 04203-030, Brasil",
    "latitude": -23.5811163,
    "longitude": -46.607132
  },
  "R. GIACOMO QUIRINO, 76 - ITAQUERA": {},
  "R. LORD CLEMENTE ATTLEE, 70 - JARAGU\u00c1": {},
  "R. CAMILO - LAPA": {
    "endereco": "Rua Camilo, Bairro Siciliano, Lapa, S\u00e3o Paulo, Regi\u00e3o Imediata de S\u00e3o Paulo, Regi\u00e3o Metropolitana de S\u00e3o Paulo, Regi\u00e3o Geogr\u00e1fica Intermedi\u00e1ria de S\u00e3o Paulo, S\u00e3o Paulo, Regi\u00e3o Sudeste, 05045-020, Brasil",
    "latitude": -23.5292031,
    "longitude": -46.6966966
  },
  "R. DA CONSOLA\u00c7\u00c3O - S\u00c9": {
    "endereco": "Rua da Consola\u00e7\u00e3o, Novo Pabussu, Caucaia, Regi\u00e3o Geogr\u00e1fica Imediata de Fortaleza, Regi\u00e3o Geogr\u00e1fica Intermedi\u00e1ria de Fortaleza, Cear\u00e1, Regi\u00e3o Nordeste, 61600-440, Brasil",
    "latitude": -3.7295652,
    "longitude": -38.6633213
  },
  "PRA\u00c7A DR. POLICARPO DE MAGALH\u00c3ES VIOTTI - TUCURUVI": {},
  "R. AMAZONAS DA SILVA, 712 - VILA MARIA": {
    "endereco": "Rua Amazonas, Morro do Gato, Vila Toledo, Pocon\u00e9, Regi\u00e3o Geogr\u00e1fica Imediata de Cuiab\u00e1, Regi\u00e3o Geogr\u00e1fica Intermedi\u00e1ria de Cuiab\u00e1, Mato Grosso, Regi\u00e3o Centro-Oeste, 78175-000, Brasil",
    "latitude": -16.2478509,
    "longitude": -56.6315657
  },
  "AL. GUAICANANS, 519 - VILA MARIANA": {},
  "R. MAESTRO CARDIM 60, BELA VISTA": {
    "endereco": "Centro Cultural Vila Itoror\u00f3, 60, Rua Maestro Cardim, Morro dos Ingleses, Bela Vista, S\u00e3o Paulo, Regi\u00e3o Imediata de S\u00e3o Paulo, Regi\u00e3o Metropolitana de S\u00e3o Paulo, Regi\u00e3o Geogr\u00e1fica Intermedi\u00e1ria de S\u00e3o Paulo, S\u00e3o Paulo, Regi\u00e3o Sudeste, 01320-000, Brasil",
    "latitude": -23.5614337,
    "longitude": -46.6406211
  },
  "R. DAS PAVANAS - CIDADE ADEMAR": {
    "endereco": "Rua das Pavanas, Cidade Ademar, S\u00e3o Paulo, Regi\u00e3o Imediata de S\u00e3o Paulo, Regi\u00e3o Metropolitana de S\u00e3o Paulo, Regi\u00e3o Geogr\u00e1fica Intermedi\u00e1ria de S\u00e3o Paulo, S\u00e3o Paulo, Regi\u00e3o Sudeste, 04412-070, Brasil",
    "latitude": -23.6686366,
    "longitude": -46.6482081
  },
  "AV. ANT\u00d4NIO ESTEV\u00c3O DE CARVALHO, 2100 - PENHA": {},
  "R. FIDALGA, 643 - PINHEIROS": {
    "endereco": "Cibo Cozinha, 643, Rua Fidalga, Pinheiros, Bairro de Pinheiros, S\u00e3o Paulo, Regi\u00e3o Imediata de S\u00e3o Paulo, Regi\u00e3o Metropolitana de S\u00e3o Paulo, Regi\u00e3o Geogr\u00e1fica Intermedi\u00e1ria de S\u00e3o Paulo, S\u00e3o Paulo, Regi\u00e3o Sudeste, 05432-070, Brasil",
    "latitude": -23.5543032,
    "longitude": -46.6914651
  },
  "R. PADRE CARVALHO, 790 - PINHEIROS": {
    "endereco": "Giacomo a Casa do Marceneiro, 790, Rua Padre Carvalho, Pinheiros, Bairro de Pinheiros, S\u00e3o Paulo, Regi\u00e3o Imediata de S\u00e3o Paulo, Regi\u00e3o Metropolitana de S\u00e3o Paulo, Regi\u00e3o Geogr\u00e1fica Intermedi\u00e1ria de S\u00e3o Paulo, S\u00e3o Paulo, Regi\u00e3o Sudeste, 05427-020, Brasil",
    "latitude": -23.5670112,
    "longitude": -46.6966354
  },
  "R. MARQUES DE SANTO AMARO - VILA PRUDENTE": {
    "endereco": "Rua Marqu\u00eas de Santo Amaro, Vila Alpina, Vila Prudente, S\u00e3o Paulo, Regi\u00e3o Imediata de S\u00e3o Paulo, Regi\u00e3o Metropolitana de S\u00e3o Paulo, Regi\u00e3o Geogr\u00e1fica Intermedi\u00e1ria de S\u00e3o Paulo, S\u00e3o Paulo, Regi\u00e3o Sudeste, 03212-000, Brasil",
    "latitude": -23.6064775,
    "longitude": -46.5651266
  },
  "R. THEODORO BAIMA - S\u00c9": {},
  "R. RUI BARBOSA - S\u00c9": {
    "endereco": "Rua Rui Barbosa, Conjunto Jos\u00e9 Levi, Ros\u00e1rio do Catete, Regi\u00e3o Geogr\u00e1fica Imediata de Aracaju, Regi\u00e3o Geogr\u00e1fica Intermedi\u00e1ria de Aracaju, Sergipe, Regi\u00e3o Nordeste, Brasil",
    "latitude": -10.6991008,
    "longitude": -37.0335864
  },
  "R. SANTO ANT\u00d4NIO, 722 - S\u00c9": {
    "endereco": "722, Rua Santo Ant\u00f4nio, Vila Buarque, Rep\u00fablica, S\u00e3o Paulo, Regi\u00e3o Imediata de S\u00e3o Paulo, Regi\u00e3o Metropolitana de S\u00e3o Paulo, Regi\u00e3o Geogr\u00e1fica Intermedi\u00e1ria de S\u00e3o Paulo, S\u00e3o Paulo, Regi\u00e3o Sudeste, 01314-000, Brasil",
    "latitude": -23.5517399,
    "longitude": -46.6452141
  },
  "R. AUGUSTA, 1513 - S\u00c9": {
    "endereco": "Bovinus, 1513, Rua Augusta, Consola\u00e7\u00e3o, S\u00e3o Paulo, Regi\u00e3o Imediata de S\u00e3o Paulo, Regi\u00e3o Metropolitana de S\u00e3o Paulo, Regi\u00e3o Geogr\u00e1fica Intermedi\u00e1ria de S\u00e3o Paulo, S\u00e3o Paulo, Regi\u00e3o Sudeste, 01305-100, Brasil",
    "latitude": -23.5567682,
    "longitude": -46.6586691
  },
  "R. QUINTINO BOCAI\u00daVA, 22 - S\u00c9": {
    "endereco": "Edif\u00edcio Palacete Tereza Toledo Lara, 22, Rua Quintino Bocaiuva, Glic\u00e9rio, S\u00e9, S\u00e3o Paulo, Regi\u00e3o Imediata de S\u00e3o Paulo, Regi\u00e3o Metropolitana de S\u00e3o Paulo, Regi\u00e3o Geogr\u00e1fica Intermedi\u00e1ria de S\u00e3o Paulo, S\u00e3o Paulo, Regi\u00e3o Sudeste, 01004-010, Brasil",
    "latitude": -23.54879105,
    "longitude": -46.63485131994777
  },
  "R. CONSELHEIRO BROTERO, 39 - BARRA FUNDA": {},
  "PRA\u00c7A GAST\u00c3O VIDIGAL - PINHEIROS": {
    "endereco": "Pra\u00e7a Gast\u00e3o Vidigal, Jardim Europa, Bairro de Pinheiros, S\u00e3o Paulo, Regi\u00e3o Imediata de S\u00e3o Paulo, Regi\u00e3o Metropolitana de S\u00e3o Paulo, Regi\u00e3o Geogr\u00e1fica Intermedi\u00e1ria de S\u00e3o Paulo, S\u00e3o Paulo, Regi\u00e3o Sudeste, Brasil",
    "latitude": -23.5714052,
    "longitude": -46.683359084188034
  },
  "AV. IPIRANGA, 794 - S\u00c9": {
    "endereco": "794, Avenida Ipiranga, Rep\u00fablica, S\u00e3o Paulo, Regi\u00e3o Imediata de S\u00e3o Paulo, Regi\u00e3o Metropolitana de S\u00e3o Paulo, Regi\u00e3o Geogr\u00e1fica Intermedi\u00e1ria de S\u00e3o Paulo, S\u00e3o Paulo, Regi\u00e3o Sudeste, 01040-000, Brasil",
    "latitude": -23.5426868,
    "longitude": -46.6404283
  },
  "R. DOS PATRIOTAS - IPIRANGA": {
    "endereco": "Rua dos Patriotas, Ipiranga, S\u00e3o Paulo, Regi\u00e3o Imediata de S\u00e3o Paulo, Regi\u00e3o Metropolitana de S\u00e3o Paulo, Regi\u00e3o Geogr\u00e1fica Intermedi\u00e1ria de S\u00e3o Paulo, S\u00e3o Paulo, Regi\u00e3o Sudeste, 04209-001, Brasil",
    "latitude": -23.5825949,
    "longitude": -46.5998207
  },
  "R. FAUSTOLO, 809 - LAPA": {
    "endereco": "809, Rua Faustolo, Vila Romana, Lapa, S\u00e3o Paulo, Regi\u00e3o Imediata de S\u00e3o Paulo, Regi\u00e3o Metropolitana de S\u00e3o Paulo, Regi\u00e3o Geogr\u00e1fica Intermedi\u00e1ria de S\u00e3o Paulo, S\u00e3o Paulo, Regi\u00e3o Sudeste, 05041-000, Brasil",
    "latitude": -23.52400911871698,
    "longitude": -46.69326544859992
  },
  "BECO DO APRENDIZ - PINHEIROS": {
    "endereco": "Beco do Aprendiz, Pinheiros, Bairro de Pinheiros, S\u00e3o Paulo, Regi\u00e3o Imediata de S\u00e3o Paulo, Regi\u00e3o Metropolitana de S\u00e3o Paulo, Regi\u00e3o Geogr\u00e1fica Intermedi\u00e1ria de S\u00e3o Paulo, S\u00e3o Paulo, Regi\u00e3o Sudeste, 05432-020, Brasil",
    "latitude": -23.5598731,
    "longitude": -46.6875175
  },
  "PRA\u00c7A FORTUNATO DA SILVEIRA - S\u00c3O MIGUEL PAULISTA": {},
  "R. CORONEL MELO DE OLIVEIRA, 766 - LAPA": {
    "endereco": "766, Rua Coronel Melo de Oliveira, Pomp\u00e9ia, Perdizes, S\u00e3o Paulo, Regi\u00e3o Imediata de S\u00e3o Paulo, Regi\u00e3o Metropolitana de S\u00e3o Paulo, Regi\u00e3o Geogr\u00e1fica Intermedi\u00e1ria de S\u00e3o Paulo, S\u00e3o Paulo, Regi\u00e3o Sudeste, 05011-040, Brasil",
    "latitude": -23.53114052488877,
    "longitude": -46.6887645675947
  },
  "PRA\u00c7A JESU\u00cdNO BANDEIRA - LAPA": {
    "endereco": "Pra\u00e7a Jesu\u00edno Bandeira, Lapa, Perdizes, S\u00e3o Paulo, Regi\u00e3o Imediata de S\u00e3o Paulo, Regi\u00e3o Metropolitana de S\u00e3o Paulo, Regi\u00e3o Geogr\u00e1fica Intermedi\u00e1ria de S\u00e3o Paulo, S\u00e3o Paulo, Regi\u00e3o Sudeste, 05046-001, Brasil",
    "latitude": -23.5349674,
    "longitude": -46.6964
  },
  "R. EUG\u00caNIO PINTO MOREIRA, 4 - LAPA": {},
  "PRA\u00c7A DAVID NASSER - VILA MARIANA": {},
  "R. RAUL MARQUES MARINHO - CIDADE ADEMAR": {},
  "R. FORTE DO TRIUNFO, 421 - S\u00c3O MATEUS": {
    "endereco": "Rua Forte do Triunfo, S\u00e3o Mateus, S\u00e3o Paulo, Regi\u00e3o Imediata de S\u00e3o Paulo, Regi\u00e3o Metropolitana de S\u00e3o Paulo, Regi\u00e3o Geogr\u00e1fica Intermedi\u00e1ria de S\u00e3o Paulo, S\u00e3o Paulo, Regi\u00e3o Sudeste, 08375-000, Brasil",
    "latitude": -23.600544,
    "longitude": -46.4631885
  },
  "R. RUI BARBOSA, 572 - S\u00c9": {
    "endereco": "572, Rua Rui Barbosa, Conjunto Palmeiras, Fortaleza, Regi\u00e3o Geogr\u00e1fica Imediata de Fortaleza, Regi\u00e3o Geogr\u00e1fica Intermedi\u00e1ria de Fortaleza, Cear\u00e1, Regi\u00e3o Nordeste, 60870-105, Brasil",
    "latitude": -3.8399887,
    "longitude": -38.5254761
  },
  "AV. ENG. LUIZ GOMES CARDIM SANGIRARDI - VILA MARIANA": {},
  "PRA\u00c7A ANGEL RAMIRES - VILA MARIANA": {},
  "R. MARIO TOTTA - CAMPO LIMPO": {},
  "R. ROSA DE MORAIS, 444 - IPIRANGA": {},
  "R. OT\u00cdLIA, 457 - PENHA": {
    "endereco": "Rua Ot\u00edlia, Vila Esperan\u00e7a, Penha, S\u00e3o Paulo, Regi\u00e3o Imediata de S\u00e3o Paulo, Regi\u00e3o Metropolitana de S\u00e3o Paulo, Regi\u00e3o Geogr\u00e1fica Intermedi\u00e1ria de S\u00e3o Paulo, S\u00e3o Paulo, Regi\u00e3o Sudeste, 03649-000, Brasil",
    "latitude": -23.5261643,
    "longitude": -46.5236342
  },
  "R. MAJOR SERTORIO - S\u00c9": {
    "endereco": "Rua Major Sert\u00f3rio, Vila Buarque, Rep\u00fablica, S\u00e3o Paulo, Regi\u00e3o Imediata de S\u00e3o Paulo, Regi\u00e3o Metropolitana de S\u00e3o Paulo, Regi\u00e3o Geogr\u00e1fica Intermedi\u00e1ria de S\u00e3o Paulo, S\u00e3o Paulo, Regi\u00e3o Sudeste, 01220-020, Brasil",
    "latitude": -23.5455101,
    "longitude": -46.6442384
  },
  "R. SANTA ISABEL, 27 - S\u00c9": {
    "endereco": "27, Rua Benjamin Constant, Gl\u00f3ria, Rio de Janeiro, Regi\u00e3o Geogr\u00e1fica Imediata do Rio de Janeiro, Regi\u00e3o Metropolitana do Rio de Janeiro, Regi\u00e3o Geogr\u00e1fica Intermedi\u00e1ria do Rio de Janeiro, Rio de Janeiro, Regi\u00e3o Sudeste, 20241-150, Brasil",
    "latitude": -22.920809511198765,
    "longitude": -43.17743337966656
  },
  "AV. IPIRANGA, 1010 - S\u00c9": {
    "endereco": "Avenida Ipiranga, Industrial, S\u00e3o Sebasti\u00e3o, Regi\u00e3o Imediata de Caraguatatuba-Ubatuba-S\u00e3o Sebasti\u00e3o, Regi\u00e3o Metropolitana do Vale do Para\u00edba e Litoral Norte, Regi\u00e3o Geogr\u00e1fica Intermedi\u00e1ria de S\u00e3o Jos\u00e9 dos Campos, S\u00e3o Paulo, Regi\u00e3o Sudeste, 11608-608, Brasil",
    "latitude": -23.8021679,
    "longitude": -45.4016497
  },
  "R. TREZE DE MAIO - S\u00c9": {
    "endereco": "Rua 13 de Maio, Loteamento Vila Nova, Carira, Regi\u00e3o Geogr\u00e1fica Imediata de Itabaiana, Regi\u00e3o Geogr\u00e1fica Intermedi\u00e1ria de Itabaiana, Sergipe, Regi\u00e3o Nordeste, Brasil",
    "latitude": -10.3538307,
    "longitude": -37.7056898
  },
  "R. BALTASAR ABADAL - BUTANT\u00c3": {},
  "AL. DOS AIC\u00c1S, 1642 - INDIAN\u00d3POLIS": {
    "endereco": "Alameda dos Aic\u00e1s, Indian\u00f3polis, Moema, S\u00e3o Paulo, Regi\u00e3o Imediata de S\u00e3o Paulo, Regi\u00e3o Metropolitana de S\u00e3o Paulo, Regi\u00e3o Geogr\u00e1fica Intermedi\u00e1ria de S\u00e3o Paulo, S\u00e3o Paulo, Regi\u00e3o Sudeste, 04086-003, Brasil",
    "latitude": -23.6156496,
    "longitude": -46.6644582
  },
  "R. CIPRIANO JUC\u00c1, 41 - PINHEIROS": {
    "endereco": "Rua Cipriano Juca, Vila Madalena, Bairro de Pinheiros, S\u00e3o Paulo, Regi\u00e3o Imediata de S\u00e3o Paulo, Regi\u00e3o Metropolitana de S\u00e3o Paulo, Regi\u00e3o Geogr\u00e1fica Intermedi\u00e1ria de S\u00e3o Paulo, S\u00e3o Paulo, Regi\u00e3o Sudeste, 05434-090, Brasil",
    "latitude": -23.5529777,
    "longitude": -46.6865535
  },
  "R. BELMIRO BRAGA, 186 - PINHEIROS": {
    "endereco": "186, Rua Belmiro Braga, Pinheiros, Bairro de Pinheiros, S\u00e3o Paulo, Regi\u00e3o Imediata de S\u00e3o Paulo, Regi\u00e3o Metropolitana de S\u00e3o Paulo, Regi\u00e3o Geogr\u00e1fica Intermedi\u00e1ria de S\u00e3o Paulo, S\u00e3o Paulo, Regi\u00e3o Sudeste, 05432-020, Brasil",
    "latitude": -23.559158,
    "longitude": -46.6873886
  },
  "R. FREI CANISIO, 28 - SANTO AMARO": {},
  "R. CANUTO DO VAL, 100 - S\u00c9": {
    "endereco": "Rua Canuto do Val, Santa Cec\u00edlia, S\u00e3o Paulo, Regi\u00e3o Imediata de S\u00e3o Paulo, Regi\u00e3o Metropolitana de S\u00e3o Paulo, Regi\u00e3o Geogr\u00e1fica Intermedi\u00e1ria de S\u00e3o Paulo, S\u00e3o Paulo, Regi\u00e3o Sudeste, 01224-040, Brasil",
    "latitude": -23.5402937,
    "longitude": -46.6518333
  },
  "R. VITORINO CARMILO - S\u00c9": {
    "endereco": "Rua Vitorino Carmilo, Ponta da Praia, Santos, Regi\u00e3o Imediata de Santos, Regi\u00e3o Metropolitana da Baixada Santista, Regi\u00e3o Geogr\u00e1fica Intermedi\u00e1ria de S\u00e3o Paulo, S\u00e3o Paulo, Regi\u00e3o Sudeste, 11020-300, Brasil",
    "latitude": -23.9818885,
    "longitude": -46.2943094
  },
  "P\u00c7. PADRE NELSON JOS\u00c9 NIGRIST - ARICANDUVA": {},
  "R. EST\u00caV\u00c3O LOPES, 50 - BUTANT\u00c3": {
    "endereco": "Rua Est\u00eav\u00e3o Lopes, Butant\u00e3, S\u00e3o Paulo, Regi\u00e3o Imediata de S\u00e3o Paulo, Regi\u00e3o Metropolitana de S\u00e3o Paulo, Regi\u00e3o Geogr\u00e1fica Intermedi\u00e1ria de S\u00e3o Paulo, S\u00e3o Paulo, Regi\u00e3o Sudeste, 05503-020, Brasil",
    "latitude": -23.5701914,
    "longitude": -46.7113437
  },
  "R. FRANCISCO DE CALDAS, 3 - CAPELA DO SOCORRO": {},
  "R. DO MAR PAULISTA, 489 - CIDADE ADEMAR": {},
  "AV. HUMBERTO GOMES MAIA, 75 - FREGUESIA": {},
  "R. JENNY BONILHA COSTIVELLI - JARAGU\u00c1": {},
  "R. SALGUEIRO DO CAMPO - M\u2019BOI MIRIM": {},
  "R. RENATO DA CUNHA, 29 - M\u2019BOI MIRIM": {},
  "R. JACKSON POLLOCK - PARELHEIROS": {
    "endereco": "Rua Jackson Pollock, Col\u00f4nia, Parelheiros, S\u00e3o Paulo, Regi\u00e3o Imediata de S\u00e3o Paulo, Regi\u00e3o Metropolitana de S\u00e3o Paulo, Regi\u00e3o Geogr\u00e1fica Intermedi\u00e1ria de S\u00e3o Paulo, S\u00e3o Paulo, Regi\u00e3o Sudeste, 04892-220, Brasil",
    "latitude": -23.8482602,
    "longitude": -46.6981842
  },
  "R. TUCUNA, 562 - PERDIZES": {
    "endereco": "562, Rua Tucuna, Pomp\u00e9ia, Perdizes, S\u00e3o Paulo, Regi\u00e3o Imediata de S\u00e3o Paulo, Regi\u00e3o Metropolitana de S\u00e3o Paulo, Regi\u00e3o Geogr\u00e1fica Intermedi\u00e1ria de S\u00e3o Paulo, S\u00e3o Paulo, Regi\u00e3o Sudeste, 05021-010, Brasil",
    "latitude": -23.532680776660083,
    "longitude": -46.683975634428265
  },
  "R. MATEUS GROU, 443 - PINHEIROS": {
    "endereco": "Rua Mateus Grou, Pinheiros, Bairro de Pinheiros, S\u00e3o Paulo, Regi\u00e3o Imediata de S\u00e3o Paulo, Regi\u00e3o Metropolitana de S\u00e3o Paulo, Regi\u00e3o Geogr\u00e1fica Intermedi\u00e1ria de S\u00e3o Paulo, S\u00e3o Paulo, Regi\u00e3o Sudeste, 05415-040, Brasil",
    "latitude": -23.5642121,
    "longitude": -46.6843656
  },
  "PRA\u00c7A ARRUDA - BUTANT\u00c3": {},
  "R. FIDALGA, 27 - PINHEIROS": {
    "endereco": "27, Rua Fidalga, Pinheiros, Bairro de Pinheiros, S\u00e3o Paulo, Regi\u00e3o Imediata de S\u00e3o Paulo, Regi\u00e3o Metropolitana de S\u00e3o Paulo, Regi\u00e3o Geogr\u00e1fica Intermedi\u00e1ria de S\u00e3o Paulo, S\u00e3o Paulo, Regi\u00e3o Sudeste, 05432-070, Brasil",
    "latitude": -23.5589442,
    "longitude": -46.6881762
  },
  "R. ICOB\u00c9 - PENHA": {
    "endereco": "Rua Icobe, Vila Marieta, Penha, S\u00e3o Paulo, Regi\u00e3o Imediata de S\u00e3o Paulo, Regi\u00e3o Metropolitana de S\u00e3o Paulo, Regi\u00e3o Geogr\u00e1fica Intermedi\u00e1ria de S\u00e3o Paulo, S\u00e3o Paulo, Regi\u00e3o Sudeste, 04021-001, Brasil",
    "latitude": -23.5144675,
    "longitude": -46.5265023
  },
  "AL. NOTHMANN, 185 - CAMPOS EL\u00cdSEOS": {},
  "PRA\u00c7A CORONEL FERNANDES DE LIMA - VILA MARIANA": {},
  "R. VITORINO CARMILO, 989 - S\u00c9": {
    "endereco": "Rua Vitorino Carmilo, Ponta da Praia, Santos, Regi\u00e3o Imediata de Santos, Regi\u00e3o Metropolitana da Baixada Santista, Regi\u00e3o Geogr\u00e1fica Intermedi\u00e1ria de S\u00e3o Paulo, S\u00e3o Paulo, Regi\u00e3o Sudeste, 11020-300, Brasil",
    "latitude": -23.9818885,
    "longitude": -46.2943094
  },
  "R. WISARD, 396 - PINHEIROS": {
    "endereco": "396, Rua Wisard, Pinheiros, Bairro de Pinheiros, S\u00e3o Paulo, Regi\u00e3o Imediata de S\u00e3o Paulo, Regi\u00e3o Metropolitana de S\u00e3o Paulo, Regi\u00e3o Geogr\u00e1fica Intermedi\u00e1ria de S\u00e3o Paulo, S\u00e3o Paulo, Regi\u00e3o Sudeste, 05434-000, Brasil",
    "latitude": -23.5558901,
    "longitude": -46.6907744
  },
  "R. CAMARAGIBE - S\u00c9": {
    "endereco": "Rua Camaragibe, Tijuca, Rio de Janeiro, Regi\u00e3o Geogr\u00e1fica Imediata do Rio de Janeiro, Regi\u00e3o Metropolitana do Rio de Janeiro, Regi\u00e3o Geogr\u00e1fica Intermedi\u00e1ria do Rio de Janeiro, Rio de Janeiro, Regi\u00e3o Sudeste, 20520-054, Brasil",
    "latitude": -22.9265134,
    "longitude": -43.2344825
  },
  "R. ALMIRANTE MARQUES LE\u00c3O, 284 - S\u00c9": {
    "endereco": "Rua Almirante Marques Le\u00e3o, Parada de Lucas, Duque de Caxias, Rio de Janeiro, Regi\u00e3o Geogr\u00e1fica Imediata do Rio de Janeiro, Regi\u00e3o Metropolitana do Rio de Janeiro, Regi\u00e3o Geogr\u00e1fica Intermedi\u00e1ria do Rio de Janeiro, Rio de Janeiro, Regi\u00e3o Sudeste, 21010-290, Brasil",
    "latitude": -22.8112363,
    "longitude": -43.2911592
  },
  "AV. DO ARVOREIRO, 200 - CAPELA DO SOCORRO": {},
  "PRA\u00c7A JOS\u00c9 ALVES DOS REIS - CAPELA DO SOCORRO": {},
  "R. SEPETIBA, 691 - LAPA": {
    "endereco": "Rua Sepetiba, Bairro Siciliano, Lapa, S\u00e3o Paulo, Regi\u00e3o Imediata de S\u00e3o Paulo, Regi\u00e3o Metropolitana de S\u00e3o Paulo, Regi\u00e3o Geogr\u00e1fica Intermedi\u00e1ria de S\u00e3o Paulo, S\u00e3o Paulo, Regi\u00e3o Sudeste, 05054-020, Brasil",
    "latitude": -23.5371651,
    "longitude": -46.7001494
  },
  "PRA\u00c7A PADRE ARNALDO, S/N - LAPA": {
    "endereco": "Pra\u00e7a Padre Arnaldo, Vila Anast\u00e1cio, Lapa, S\u00e3o Paulo, Regi\u00e3o Imediata de S\u00e3o Paulo, Regi\u00e3o Metropolitana de S\u00e3o Paulo, Regi\u00e3o Geogr\u00e1fica Intermedi\u00e1ria de S\u00e3o Paulo, S\u00e3o Paulo, Regi\u00e3o Sudeste, 05093-060, Brasil",
    "latitude": -23.5151896,
    "longitude": -46.7201321
  },
  "R. IGN\u00c1CIO LIMAS - M\u2019BOI MIRIM": {},
  "R. DR. OCTAC\u00cdLIO DE CARVALHO LOPES - M\u2019BOI MIRIM": {},
  "AV. DOUTOR SYLVIO DE CAMPOS - PERUS": {
    "endereco": "Avenida Doutor Sylvio de Campos, Perus, S\u00e3o Paulo, Regi\u00e3o Imediata de S\u00e3o Paulo, Regi\u00e3o Metropolitana de S\u00e3o Paulo, Regi\u00e3o Geogr\u00e1fica Intermedi\u00e1ria de S\u00e3o Paulo, S\u00e3o Paulo, Regi\u00e3o Sudeste, 05208-000, Brasil",
    "latitude": -23.4064348,
    "longitude": -46.7674241
  },
  "R. FILITO DE ALMEIDA, 145 - PINHEIROS": {},
  "AV. NORDESTINA, 5113 - S\u00c3O MIGUEL PAULISTA": {
    "endereco": "Avenida Nordestina, S\u00e3o Miguel, S\u00e3o Miguel Paulista, S\u00e3o Paulo, Regi\u00e3o Imediata de S\u00e3o Paulo, Regi\u00e3o Metropolitana de S\u00e3o Paulo, Regi\u00e3o Geogr\u00e1fica Intermedi\u00e1ria de S\u00e3o Paulo, S\u00e3o Paulo, Regi\u00e3o Sudeste, 08010-100, Brasil",
    "latitude": -23.4944275,
    "longitude": -46.443241
  },
  "R. EDGARD PINTO C\u00c9SAR, 459 - SAPOPEMBA": {
    "endereco": "Rua Doutor Edgard Pinto C\u00e9sar, Vila Cardoso Franco, Sapopemba, S\u00e3o Paulo, Regi\u00e3o Imediata de S\u00e3o Paulo, Regi\u00e3o Metropolitana de S\u00e3o Paulo, Regi\u00e3o Geogr\u00e1fica Intermedi\u00e1ria de S\u00e3o Paulo, S\u00e3o Paulo, Regi\u00e3o Sudeste, 03976-190, Brasil",
    "latitude": -23.6129785,
    "longitude": -46.5040011
  },
  "R. BARRA FUNDA, 34 - S\u00c9": {
    "endereco": "34, Rua Barra Funda, Campos El\u00edsios, Santa Cec\u00edlia, S\u00e3o Paulo, Regi\u00e3o Imediata de S\u00e3o Paulo, Regi\u00e3o Metropolitana de S\u00e3o Paulo, Regi\u00e3o Geogr\u00e1fica Intermedi\u00e1ria de S\u00e3o Paulo, S\u00e3o Paulo, Regi\u00e3o Sudeste, 01152-000, Brasil",
    "latitude": -23.533290205886683,
    "longitude": -46.65273200768702
  },
  "PRA\u00c7A DA JAPURA - JABAQUARA": {},
  "R. RUBENS DE SOUZA, 300 - JARAGU\u00c1": {},
  "PRA\u00c7A JOSE ORIA - BUTANT\u00c3": {},
  "PRA\u00c7A CANA\u00c3 - CASA VERDE": {},
  "R. FRANCISCO RODRIGUES ALVES - FREGUESIA": {
    "endereco": "Rua Francisco Rodrigues Alves, Jardim Brasil\u00e2ndia, Freguesia do \u00d3, S\u00e3o Paulo, Regi\u00e3o Imediata de S\u00e3o Paulo, Regi\u00e3o Metropolitana de S\u00e3o Paulo, Regi\u00e3o Geogr\u00e1fica Intermedi\u00e1ria de S\u00e3o Paulo, S\u00e3o Paulo, Regi\u00e3o Sudeste, 02965-140, Brasil",
    "latitude": -23.4869677,
    "longitude": -46.7062846
  },
  "R. MANUEL GAYA, 806 - JA\u00c7AN\u00c3": {
    "endereco": "806, Rua Manuel Gaya, Jardim Leonor Mendes de Barros, Tucuruvi, S\u00e3o Paulo, Regi\u00e3o Imediata de S\u00e3o Paulo, Regi\u00e3o Metropolitana de S\u00e3o Paulo, Regi\u00e3o Geogr\u00e1fica Intermedi\u00e1ria de S\u00e3o Paulo, S\u00e3o Paulo, Regi\u00e3o Sudeste, 02313-000, Brasil",
    "latitude": -23.464568287391366,
    "longitude": -46.59995387529325
  },
  "R. S\u00c3O JORGE - JA\u00c7AN\u00c3": {
    "endereco": "Rua S\u00e3o Jorge, Vila Jardim Felicidade, Trememb\u00e9, S\u00e3o Paulo, Regi\u00e3o Imediata de S\u00e3o Paulo, Regi\u00e3o Metropolitana de S\u00e3o Paulo, Regi\u00e3o Geogr\u00e1fica Intermedi\u00e1ria de S\u00e3o Paulo, S\u00e3o Paulo, Regi\u00e3o Sudeste, 02281-110, Brasil",
    "latitude": -23.4470674,
    "longitude": -46.577237
  },
  "R. CATARINA BRAIDA, 232 - MOOCA": {
    "endereco": "232, Rua Catarina Braida, Mooca, S\u00e3o Paulo, Regi\u00e3o Imediata de S\u00e3o Paulo, Regi\u00e3o Metropolitana de S\u00e3o Paulo, Regi\u00e3o Geogr\u00e1fica Intermedi\u00e1ria de S\u00e3o Paulo, S\u00e3o Paulo, Regi\u00e3o Sudeste, 03169-030, Brasil",
    "latitude": -23.5523397,
    "longitude": -46.5956625
  },
  "AV. DR. SYLVIO DE CAMPOS, 418 - PERUS": {
    "endereco": "Avenida Doutor Sylvio de Campos, Perus, S\u00e3o Paulo, Regi\u00e3o Imediata de S\u00e3o Paulo, Regi\u00e3o Metropolitana de S\u00e3o Paulo, Regi\u00e3o Geogr\u00e1fica Intermedi\u00e1ria de S\u00e3o Paulo, S\u00e3o Paulo, Regi\u00e3o Sudeste, 05208-000, Brasil",
    "latitude": -23.4064348,
    "longitude": -46.7674241
  },
  "R. GALENO DE ALMEIDA, 606 - PINHEIROS": {
    "endereco": "Rua Galeno de Almeida, Pinheiros, Bairro de Pinheiros, S\u00e3o Paulo, Regi\u00e3o Imediata de S\u00e3o Paulo, Regi\u00e3o Metropolitana de S\u00e3o Paulo, Regi\u00e3o Geogr\u00e1fica Intermedi\u00e1ria de S\u00e3o Paulo, S\u00e3o Paulo, Regi\u00e3o Sudeste, 05410-060, Brasil",
    "latitude": -23.5547586,
    "longitude": -46.6810748
  },
  "PRA\u00c7A \u00c9DER SADER - PINHEIROS": {
    "endereco": "Pra\u00e7a Eder Sader, Pinheiros, Bairro de Pinheiros, S\u00e3o Paulo, Regi\u00e3o Imediata de S\u00e3o Paulo, Regi\u00e3o Metropolitana de S\u00e3o Paulo, Regi\u00e3o Geogr\u00e1fica Intermedi\u00e1ria de S\u00e3o Paulo, S\u00e3o Paulo, Regi\u00e3o Sudeste, Brasil",
    "latitude": -23.55290125,
    "longitude": -46.692717939435795
  },
  "R. SEBASTI\u00c3O DE MENDON\u00c7A - S\u00c3O MATEUS": {
    "endereco": "Rua Sebasti\u00e3o de Mendon\u00e7a, Vila 2 de Maio, S\u00e3o Mateus, S\u00e3o Paulo, Regi\u00e3o Imediata de S\u00e3o Paulo, Regi\u00e3o Metropolitana de S\u00e3o Paulo, Regi\u00e3o Geogr\u00e1fica Intermedi\u00e1ria de S\u00e3o Paulo, S\u00e3o Paulo, Regi\u00e3o Sudeste, 03959-040, Brasil",
    "latitude": -23.589698,
    "longitude": -46.4834983
  },
  "R. JOS\u00c9 FERREIRA CRESPO, 404 - S\u00c3O MIGUEL PAULISTA": {
    "endereco": "Rua Jos\u00e9 Ferreira Crespo, Vila Ros\u00e1ria, S\u00e3o Miguel, S\u00e3o Miguel Paulista, S\u00e3o Paulo, Regi\u00e3o Imediata de S\u00e3o Paulo, Regi\u00e3o Metropolitana de S\u00e3o Paulo, Regi\u00e3o Geogr\u00e1fica Intermedi\u00e1ria de S\u00e3o Paulo, S\u00e3o Paulo, Regi\u00e3o Sudeste, 08042-130, Brasil",
    "latitude": -23.4993234,
    "longitude": -46.43001
  },
  "R. CONSELHEIRO CARR\u00c3O, 21 - S\u00c9": {
    "endereco": "21, Rua Conselheiro Carr\u00e3o, Bixiga, Bela Vista, S\u00e3o Paulo, Regi\u00e3o Imediata de S\u00e3o Paulo, Regi\u00e3o Metropolitana de S\u00e3o Paulo, Regi\u00e3o Geogr\u00e1fica Intermedi\u00e1ria de S\u00e3o Paulo, S\u00e3o Paulo, Regi\u00e3o Sudeste, 01328-000, Brasil",
    "latitude": -23.5575248,
    "longitude": -46.642484
  },
  "R. BARRA FUNDA, 611 - S\u00c9": {
    "endereco": "611, Rua Barra Funda, Campos El\u00edsios, Santa Cec\u00edlia, S\u00e3o Paulo, Regi\u00e3o Imediata de S\u00e3o Paulo, Regi\u00e3o Metropolitana de S\u00e3o Paulo, Regi\u00e3o Geogr\u00e1fica Intermedi\u00e1ria de S\u00e3o Paulo, S\u00e3o Paulo, Regi\u00e3o Sudeste, 01152-000, Brasil",
    "latitude": -23.529324777905085,
    "longitude": -46.6566669234596
  },
  "PRA\u00c7A DA REP\u00daBLICA, 292 - S\u00c9": {
    "endereco": "Santander, 292, Pra\u00e7a da Rep\u00fablica, Rep\u00fablica, S\u00e3o Paulo, Regi\u00e3o Imediata de S\u00e3o Paulo, Regi\u00e3o Metropolitana de S\u00e3o Paulo, Regi\u00e3o Geogr\u00e1fica Intermedi\u00e1ria de S\u00e3o Paulo, S\u00e3o Paulo, Regi\u00e3o Sudeste, 01045-000, Brasil",
    "latitude": -23.5432822,
    "longitude": -46.6411823
  },
  "R. CONSELHEIRO BROTERO, 195 - S\u00c9": {
    "endereco": "195, Rua Conselheiro Brotero, Santa Cec\u00edlia, S\u00e3o Paulo, Regi\u00e3o Imediata de S\u00e3o Paulo, Regi\u00e3o Metropolitana de S\u00e3o Paulo, Regi\u00e3o Geogr\u00e1fica Intermedi\u00e1ria de S\u00e3o Paulo, S\u00e3o Paulo, Regi\u00e3o Sudeste, 01154-000, Brasil",
    "latitude": -23.529062192397415,
    "longitude": -46.65603724036199
  },
  "R. MOURATO COELHO, 1230 - VILA MADALENA": {
    "endereco": "1230, Rua Mourato Coelho, Pinheiros, Bairro de Pinheiros, S\u00e3o Paulo, Regi\u00e3o Imediata de S\u00e3o Paulo, Regi\u00e3o Metropolitana de S\u00e3o Paulo, Regi\u00e3o Geogr\u00e1fica Intermedi\u00e1ria de S\u00e3o Paulo, S\u00e3o Paulo, Regi\u00e3o Sudeste, 05417-002, Brasil",
    "latitude": -23.5573235,
    "longitude": -46.6918514
  },
  "ESTR. DE MOGI DAS CRUZES, 287 - ERMELINO MATARAZZO": {},
  "R. TENENTE CORONEL JOS\u00c9 J. CORREIA DE ARRUDA - FREGUESIA": {},
  "AV. DIEDERICHSEN, 1840 - JABAQUARA": {
    "endereco": "Avenida Diederichsen, Vila Guarani, Jabaquara, S\u00e3o Paulo, Regi\u00e3o Imediata de S\u00e3o Paulo, Regi\u00e3o Metropolitana de S\u00e3o Paulo, Regi\u00e3o Geogr\u00e1fica Intermedi\u00e1ria de S\u00e3o Paulo, S\u00e3o Paulo, Regi\u00e3o Sudeste, 04310-040, Brasil",
    "latitude": -23.6331274,
    "longitude": -46.641365
  },
  "LARGO DA LAPA - LAPA": {
    "endereco": "Largo da Lapa, \u00c1gua Branca, Lapa, S\u00e3o Paulo, Regi\u00e3o Imediata de S\u00e3o Paulo, Regi\u00e3o Metropolitana de S\u00e3o Paulo, Regi\u00e3o Geogr\u00e1fica Intermedi\u00e1ria de S\u00e3o Paulo, S\u00e3o Paulo, Regi\u00e3o Sudeste, Brasil",
    "latitude": -23.5156135,
    "longitude": -46.705493331973294
  },
  "R. BENTO LEITE DA SILVA, 31 - M\u2019BOI MIRIM": {},
  "R. JOS\u00c9 JOAQUIM GON\u00c7ALVES - M\u2019BOI MIRIM": {},
  "R. MACIEIRA DO SUL - M\u2019BOI MIRIM": {},
  "R. JOS\u00c9 PINHEIRO BEZERRA, 100 - MOOCA": {},
  "R. VIEIRA MARTINS - MOOCA": {},
  "R. HENRIQUE ROSCHEL CHRISTI, 646 - PARELHEIROS": {
    "endereco": "Rua Henrique Roschel Christi, Jardim dos \u00c1lamos, Parelheiros, S\u00e3o Paulo, Regi\u00e3o Imediata de S\u00e3o Paulo, Regi\u00e3o Metropolitana de S\u00e3o Paulo, Regi\u00e3o Geogr\u00e1fica Intermedi\u00e1ria de S\u00e3o Paulo, S\u00e3o Paulo, Regi\u00e3o Sudeste, 04883-180, Brasil",
    "latitude": -23.8095252,
    "longitude": -46.7372904
  },
  "PRA\u00c7A BARRA D'OURO - PENHA": {},
  "R. WISARD, 261 - PINHEIROS": {
    "endereco": "261, Rua Wisard, Pinheiros, Bairro de Pinheiros, S\u00e3o Paulo, Regi\u00e3o Imediata de S\u00e3o Paulo, Regi\u00e3o Metropolitana de S\u00e3o Paulo, Regi\u00e3o Geogr\u00e1fica Intermedi\u00e1ria de S\u00e3o Paulo, S\u00e3o Paulo, Regi\u00e3o Sudeste, 05434-080, Brasil",
    "latitude": -23.5552792,
    "longitude": -46.6894869
  },
  "R. DR. ROMEO FERRO - BUTANT\u00c3": {},
  "AV. HUMBERTO GOMES MAIA, 323 - FREGUESIA": {},
  "R. PADRE GARC\u00cdA VELHO, 61 - PINHEIROS": {
    "endereco": "61, Rua Padre Garcia Velho, Pinheiros, Bairro de Pinheiros, S\u00e3o Paulo, Regi\u00e3o Imediata de S\u00e3o Paulo, Regi\u00e3o Metropolitana de S\u00e3o Paulo, Regi\u00e3o Geogr\u00e1fica Intermedi\u00e1ria de S\u00e3o Paulo, S\u00e3o Paulo, Regi\u00e3o Sudeste, 05421-030, Brasil",
    "latitude": -23.5621549,
    "longitude": -46.6931934
  },
  "R. IMACULADA CONCEI\u00c7\u00c3O, 134 - S\u00c9": {
    "endereco": "Rua Imaculada Concei\u00e7\u00e3o, Rio Casca, Regi\u00e3o Geogr\u00e1fica Imediata de Ponte Nova, Regi\u00e3o Geogr\u00e1fica Intermedi\u00e1ria de Juiz de Fora, Minas Gerais, Regi\u00e3o Sudeste, Brasil",
    "latitude": -20.2258214,
    "longitude": -42.6515651
  },
  "R. CAT\u00c3O 1150 - VILA ROMANA": {
    "endereco": "Rua Cat\u00e3o, Vila Romana, Lapa, S\u00e3o Paulo, Regi\u00e3o Imediata de S\u00e3o Paulo, Regi\u00e3o Metropolitana de S\u00e3o Paulo, Regi\u00e3o Geogr\u00e1fica Intermedi\u00e1ria de S\u00e3o Paulo, S\u00e3o Paulo, Regi\u00e3o Sudeste, 05049-000, Brasil",
    "latitude": -23.5234126,
    "longitude": -46.7005018
  },
  "AV. IPIRANGA, 719 - S\u00c9": {
    "endereco": "Avenida Ipiranga, Vila Cabo Rocha, Azenha, Porto Alegre, Regi\u00e3o Geogr\u00e1fica Imediata de Porto Alegre, Regi\u00e3o Metropolitana de Porto Alegre, Regi\u00e3o Geogr\u00e1fica Intermedi\u00e1ria de Porto Alegre, Rio Grande do Sul, Regi\u00e3o Sul, 90160-093, Brasil",
    "latitude": -30.0480523,
    "longitude": -51.2155762
  },
  "R.TREZE DE MAIO, 518 - S\u00c9": {
    "endereco": "518, Rua Treze de Maio, Bixiga, Bela Vista, S\u00e3o Paulo, Regi\u00e3o Imediata de S\u00e3o Paulo, Regi\u00e3o Metropolitana de S\u00e3o Paulo, Regi\u00e3o Geogr\u00e1fica Intermedi\u00e1ria de S\u00e3o Paulo, S\u00e3o Paulo, Regi\u00e3o Sudeste, 01327-000, Brasil",
    "latitude": -23.5577118413616,
    "longitude": -46.64650270304176
  },
  "R. PUXINANA - FREGUESIA": {},
  "AV. IPIRANGA, 770 - S\u00c9": {
    "endereco": "770, Avenida Ipiranga, Rep\u00fablica, S\u00e3o Paulo, Regi\u00e3o Imediata de S\u00e3o Paulo, Regi\u00e3o Metropolitana de S\u00e3o Paulo, Regi\u00e3o Geogr\u00e1fica Intermedi\u00e1ria de S\u00e3o Paulo, S\u00e3o Paulo, Regi\u00e3o Sudeste, 01040-000, Brasil",
    "latitude": -23.5428268,
    "longitude": -46.6406207
  },
  "AV. JORGE JO\u00c3O SAAD, 377 - BUTANT\u00c3": {},
  "PRA\u00c7A JESU\u00cdNO BANDEIRA, 39 - LAPA": {
    "endereco": "Pra\u00e7a Jesu\u00edno Bandeira, Lapa, Perdizes, S\u00e3o Paulo, Regi\u00e3o Imediata de S\u00e3o Paulo, Regi\u00e3o Metropolitana de S\u00e3o Paulo, Regi\u00e3o Geogr\u00e1fica Intermedi\u00e1ria de S\u00e3o Paulo, S\u00e3o Paulo, Regi\u00e3o Sudeste, 05046-001, Brasil",
    "latitude": -23.5349674,
    "longitude": -46.6964
  },
  "R. DIANA - LAPA": {},
  "AV. VER. ABEL FERREIRA, 701 - MOOCA": {},
  "PRA\u00c7A OLAVO BILAC - SANTA CECILIA": {
    "endereco": "Pra\u00e7a Olavo Bilac, Campos El\u00edsios, Santa Cec\u00edlia, S\u00e3o Paulo, Regi\u00e3o Imediata de S\u00e3o Paulo, Regi\u00e3o Metropolitana de S\u00e3o Paulo, Regi\u00e3o Geogr\u00e1fica Intermedi\u00e1ria de S\u00e3o Paulo, S\u00e3o Paulo, Regi\u00e3o Sudeste, Brasil",
    "latitude": -23.533812,
    "longitude": -46.652503298909984
  },
  "R. SENADOR PAULO EGIDIO, 72 - S\u00c9": {
    "endereco": "2\u00ba Cart\u00f3rio Oficial de Registro de T\u00edtulos e Documentos, 70;72, Rua Senador Paulo Eg\u00eddio, Glic\u00e9rio, S\u00e9, S\u00e3o Paulo, Regi\u00e3o Imediata de S\u00e3o Paulo, Regi\u00e3o Metropolitana de S\u00e3o Paulo, Regi\u00e3o Geogr\u00e1fica Intermedi\u00e1ria de S\u00e3o Paulo, S\u00e3o Paulo, Regi\u00e3o Sudeste, 01006-010, Brasil",
    "latitude": -23.5494351,
    "longitude": -46.6362474
  },
  "LARGO SANTA CEC\u00cdLIA, S/N - S\u00c9": {
    "endereco": "Largo Santa Cec\u00edlia, Santa Cec\u00edlia, S\u00e3o Paulo, Regi\u00e3o Imediata de S\u00e3o Paulo, Regi\u00e3o Metropolitana de S\u00e3o Paulo, Regi\u00e3o Geogr\u00e1fica Intermedi\u00e1ria de S\u00e3o Paulo, S\u00e3o Paulo, Regi\u00e3o Sudeste, 01225-010, Brasil",
    "latitude": -23.5392155,
    "longitude": -46.6500541
  },
  "R. DAS GOIABEIRAS - BUTANT\u00c3": {},
  "R. JOS\u00c9 ALVAREZ MACIEL - BUTANT\u00c3": {},
  "PRA\u00c7A CENTEN\u00c1RIO - CASA VERDE": {
    "endereco": "Pra\u00e7a Centen\u00e1rio, Casa Verde Baixa, Casa Verde, S\u00e3o Paulo, Regi\u00e3o Imediata de S\u00e3o Paulo, Regi\u00e3o Metropolitana de S\u00e3o Paulo, Regi\u00e3o Geogr\u00e1fica Intermedi\u00e1ria de S\u00e3o Paulo, S\u00e3o Paulo, Regi\u00e3o Sudeste, Brasil",
    "latitude": -23.5093673,
    "longitude": -46.65699472831325
  },
  "R. CORONEL TRIST\u00c3O, 203 - FREGUESIA": {
    "endereco": "Rua Coronel Trist\u00e3o, Nossa Senhora do \u00d3, Freguesia do \u00d3, S\u00e3o Paulo, Regi\u00e3o Imediata de S\u00e3o Paulo, Regi\u00e3o Metropolitana de S\u00e3o Paulo, Regi\u00e3o Geogr\u00e1fica Intermedi\u00e1ria de S\u00e3o Paulo, S\u00e3o Paulo, Regi\u00e3o Sudeste, 02926-000, Brasil",
    "latitude": -23.5001409,
    "longitude": -46.6985465
  },
  "AV. NAGIB FARAH MALUF, 1209 - ITAQUERA": {},
  "R. BRESSER - MOOCA": {
    "endereco": "Rua Bresser, Mooca, S\u00e3o Paulo, Regi\u00e3o Imediata de S\u00e3o Paulo, Regi\u00e3o Metropolitana de S\u00e3o Paulo, Regi\u00e3o Geogr\u00e1fica Intermedi\u00e1ria de S\u00e3o Paulo, S\u00e3o Paulo, Regi\u00e3o Sudeste, 03162-050, Brasil",
    "latitude": -23.5477007,
    "longitude": -46.6029405
  },
  "R. COELHO LISBOA - MOOCA": {},
  "R. JO\u00c3O MOURA, 727 - PINHEIROS": {
    "endereco": "E.E Godofredo Furtado, 727, Rua Jo\u00e3o Moura, Jardim Paulista, Bairro de Pinheiros, S\u00e3o Paulo, Regi\u00e3o Imediata de S\u00e3o Paulo, Regi\u00e3o Metropolitana de S\u00e3o Paulo, Regi\u00e3o Geogr\u00e1fica Intermedi\u00e1ria de S\u00e3o Paulo, S\u00e3o Paulo, Regi\u00e3o Sudeste, 05412-001, Brasil",
    "latitude": -23.5593782,
    "longitude": -46.6785903
  },
  "AL. CLEVELAND, 601 - S\u00c9": {
    "endereco": "601, Alameda Cleveland, Campos El\u00edsios, Santa Cec\u00edlia, S\u00e3o Paulo, Regi\u00e3o Imediata de S\u00e3o Paulo, Regi\u00e3o Metropolitana de S\u00e3o Paulo, Regi\u00e3o Geogr\u00e1fica Intermedi\u00e1ria de S\u00e3o Paulo, S\u00e3o Paulo, Regi\u00e3o Sudeste, 01218-000, Brasil",
    "latitude": -23.530208306198347,
    "longitude": -46.643297265289256
  },
  "R. REGO FREITAS - S\u00c9": {
    "endereco": "Rua Rego Freitas, Vila Buarque, Rep\u00fablica, S\u00e3o Paulo, Regi\u00e3o Imediata de S\u00e3o Paulo, Regi\u00e3o Metropolitana de S\u00e3o Paulo, Regi\u00e3o Geogr\u00e1fica Intermedi\u00e1ria de S\u00e3o Paulo, S\u00e3o Paulo, Regi\u00e3o Sudeste, 01302-000, Brasil",
    "latitude": -23.5470694,
    "longitude": -46.6466794
  },
  "R. SANTANESIA - BUTANT\u00c3": {
    "endereco": "Rua Santan\u00e9sia, Butant\u00e3, S\u00e3o Paulo, Regi\u00e3o Imediata de S\u00e3o Paulo, Regi\u00e3o Metropolitana de S\u00e3o Paulo, Regi\u00e3o Geogr\u00e1fica Intermedi\u00e1ria de S\u00e3o Paulo, S\u00e3o Paulo, Regi\u00e3o Sudeste, 05580-050, Brasil",
    "latitude": -23.5753587,
    "longitude": -46.7170932
  },
  "R. ENGENHEIRO PRUDENTE, 367 - IPIRANGA": {},
  "R. APINAJ\u00c9S - LAPA": {},
  "R. MANUEL DIAS LEME - M\u2019BOI MIRIM": {},
  "AV. CAMPO MOUR\u00c3O - M\u2019BOI MIRIM": {},
  "R. CUMAR\u00da, 204 - S\u00c3O MIGUEL PAULISTA": {
    "endereco": "Rua Cumaru, S\u00e3o Miguel, S\u00e3o Miguel Paulista, S\u00e3o Paulo, Regi\u00e3o Imediata de S\u00e3o Paulo, Regi\u00e3o Metropolitana de S\u00e3o Paulo, Regi\u00e3o Geogr\u00e1fica Intermedi\u00e1ria de S\u00e3o Paulo, S\u00e3o Paulo, Regi\u00e3o Sudeste, 08080-363, Brasil",
    "latitude": -23.494213,
    "longitude": -46.4325221
  },
  "R. VIRI - TUCURUVI": {
    "endereco": "Rua Viri, Jardim S\u00e3o Paulo, Santana, S\u00e3o Paulo, Regi\u00e3o Imediata de S\u00e3o Paulo, Regi\u00e3o Metropolitana de S\u00e3o Paulo, Regi\u00e3o Geogr\u00e1fica Intermedi\u00e1ria de S\u00e3o Paulo, S\u00e3o Paulo, Regi\u00e3o Sudeste, 02042-030, Brasil",
    "latitude": -23.4968552,
    "longitude": -46.6130456
  },
  "R. FORTUNATO, 35 - S\u00c9": {
    "endereco": "Rua Fortunato, Vila Nova, Cocal do Sul, Regi\u00e3o Geogr\u00e1fica Imediata de Crici\u00fama, Regi\u00e3o Geogr\u00e1fica Intermedi\u00e1ria de Crici\u00fama, Santa Catarina, Regi\u00e3o Sul, 88845-000, Brasil",
    "latitude": -28.5848595,
    "longitude": -49.3163883
  },
  "R. RUI BARBOSA, 658 - S\u00c9": {
    "endereco": "658, Rua Rui Barbosa, Vila Seixas, Ribeir\u00e3o Preto, Regi\u00e3o Imediata de Ribeir\u00e3o Preto, Regi\u00e3o Metropolitana de Ribeir\u00e3o Preto, Regi\u00e3o Geogr\u00e1fica Intermedi\u00e1ria de Ribeir\u00e3o Preto, S\u00e3o Paulo, Regi\u00e3o Sudeste, 14015-120, Brasil",
    "latitude": -21.182148017371407,
    "longitude": -47.811208138959955
  },
  "LARGO PAISSANDU - S\u00c9": {
    "endereco": "Largo Paissandu, Vila Pires, Santo Andr\u00e9, Regi\u00e3o Imediata de S\u00e3o Paulo, Regi\u00e3o Metropolitana de S\u00e3o Paulo, Regi\u00e3o Geogr\u00e1fica Intermedi\u00e1ria de S\u00e3o Paulo, S\u00e3o Paulo, Regi\u00e3o Sudeste, Brasil",
    "latitude": -23.677369650000003,
    "longitude": -46.514677672028924
  },
  "R. BR\u00c1S ALBANESE, 02 - CAMPO LIMPO": {},
  "R. ANG\u00c9LICA DA COSTA CARVALHO, 8 - PENHA": {},
  "R. DOS PROFESSORES, 549 - PENHA": {},
  "R. JOS\u00c9 LOPES RODRIGUES, 178 - ERMELINO MATARAZZO": {
    "endereco": "Rua Jos\u00e9 Lopes Rodrigues, Ermelino Matarazzo, S\u00e3o Paulo, Regi\u00e3o Imediata de S\u00e3o Paulo, Regi\u00e3o Metropolitana de S\u00e3o Paulo, Regi\u00e3o Geogr\u00e1fica Intermedi\u00e1ria de S\u00e3o Paulo, S\u00e3o Paulo, Regi\u00e3o Sudeste, 03813-080, Brasil",
    "latitude": -23.4856322,
    "longitude": -46.4756672
  },